[{
  "address": "2272 West Great Neck Road, Virginia Beach",
  "b": 0,
  "c": "F",
  "s": "2272 West Great Neck Road",
  "lng": -76.070824,
  "city": "Virginia Beach",
  "ov": "Deadline Brewing Project",
  "clr": "f",
  "cty": "US",
  "id": 153197209,
  "lat": 36.911006,
  "name": "Deadline Brewing Project"
}, {
  "address": "1805 Kempsville Road, Virginia Beach",
  "b": 0,
  "c": "F",
  "s": "1805 Kempsville Road",
  "lng": -76.189362,
  "city": "Virginia Beach",
  "ov": "Back Bay's Farmhouse Brewing Co",
  "clr": "address",
  "cty": "US",
  "id": 153197220,
  "lat": 36.783065,
  "name": "Back Bay's Farmhouse Brewing Co"
}, {
  "address": "150 Ridgemont Road, Middletown",
  "b": 0,
  "c": "F",
  "s": "150 Ridgemont Road",
  "lng": -78.221027,
  "city": "Middletown",
  "ov": "Backroom Brewery",
  "clr": "s",
  "cty": "US",
  "id": 134281831,
  "lat": 38.9956,
  "name": "Backroom Brewery"
}, {
  "address": "33 Perchwood Drive, Fredericksburg",
  "b": 0,
  "c": "F",
  "s": "33 Perchwood Drive",
  "lng": -77.440554,
  "city": "Fredericksburg",
  "ov": "Adventure Brewing Company",
  "clr": "g",
  "cty": "US",
  "id": 134279389,
  "lat": 38.384518,
  "name": "Adventure Brewing Company"
}, {
  "address": "739 Kessler Mill Road, Salem",
  "b": 0,
  "c": "F",
  "s": "739 Kessler Mill Road",
  "lng": -80.033478,
  "city": "Salem",
  "ov": "Parkway Brewing Company LLC",
  "clr": "y",
  "cty": "US",
  "id": 135073306,
  "lat": 37.309198,
  "name": "Parkway Brewing Company LLC"
}, {
  "address": "11109 Plank Road, Spotsylvania Courthouse",
  "b": 0,
  "c": "F",
  "s": "11109 Plank Road",
  "lng": -77.718859,
  "city": "Spotsylvania Courthouse",
  "ov": "1781 Brewing Co",
  "clr": "g",
  "cty": "US",
  "id": 134278901,
  "lat": 38.324479,
  "name": "1781 Brewing Co"
}, {
  "address": "3025 Shore Drive, Virginia Beach",
  "b": 0,
  "c": "F",
  "s": "3025 Shore Drive",
  "lng": -76.077903,
  "city": "Virginia Beach",
  "ov": "Pleasure House Brewing",
  "clr": "c",
  "cty": "US",
  "id": 135073326,
  "lat": 36.909794,
  "name": "Pleasure House Brewing"
}, {
  "address": "45980 Waterview Plaza, Sterling",
  "b": 0,
  "c": "F",
  "s": "45980 Waterview Plaza",
  "lng": -77.409853,
  "city": "Sterling",
  "ov": "Sweetwater Tavern",
  "clr": "p",
  "cty": "US",
  "id": 135085888,
  "lat": 39.033445,
  "name": "Sweetwater Tavern"
}, {
  "address": "321 West 7th Street, Richmond",
  "b": 0,
  "c": "F",
  "s": "321 West 7th Street",
  "lng": -77.44298,
  "city": "Richmond",
  "ov": "Legend Brewing Co",
  "clr": "r",
  "cty": "US",
  "id": 134285118,
  "lat": 37.526668,
  "name": "Legend Brewing Co"
}, {
  "address": "4520 Daly Drive, Chantilly",
  "b": 0,
  "c": "F",
  "s": "4520 Daly Drive",
  "lng": -77.443395,
  "city": "Chantilly",
  "ov": "Ono Brewing Company",
  "clr": "n",
  "cty": "US",
  "id": 143983221,
  "lat": 38.884349,
  "name": "Ono Brewing Company"
}, {
  "address": "315 Market Street SE, Roanoke",
  "b": 0,
  "c": "F",
  "s": "315 Market Street SE",
  "lng": -79.914315,
  "city": "Roanoke",
  "ov": "Deschutes Brewery East Coast Site",
  "clr": "address",
  "cty": "US",
  "id": 139614245,
  "lat": 37.30019,
  "name": "Deschutes Brewery East Coast Site"
}, {
  "address": "18701 Foggy Bottom Road, Bluemont",
  "b": 0,
  "c": "F",
  "s": "18701 Foggy Bottom Road",
  "lng": -77.825382,
  "city": "Bluemont",
  "ov": "Dirt Farm Brewing",
  "clr": "p",
  "cty": "US",
  "id": 134283597,
  "lat": 39.100713,
  "name": "Dirt Farm Brewing"
}, {
  "address": "6633 Viscoe Road, Radford",
  "b": 0,
  "c": "F",
  "s": "6633 Viscoe Road",
  "lng": -80.544933,
  "city": "Radford",
  "ov": "The River Company Restaurant and Brewery",
  "clr": "u",
  "cty": "US",
  "id": 135085958,
  "lat": 37.146043,
  "name": "The River Company Restaurant and Brewery"
}, {
  "address": "11047 Pierson Drive #b, Fredericksburg",
  "b": 0,
  "c": "F",
  "s": "11047 Pierson Drive #b",
  "lng": -77.436615,
  "city": "Fredericksburg",
  "ov": "Maltese Brewing Company LLC",
  "clr": "g",
  "cty": "US",
  "id": 134285197,
  "lat": 38.260773,
  "name": "Maltese Brewing Company LLC"
}, {
  "address": "2508 Jefferson Hwy Ste 1, Waynesboro",
  "b": 0,
  "c": "F",
  "s": "2508 Jefferson Hwy Ste 1",
  "lng": -78.938808,
  "city": "Waynesboro",
  "ov": "Seven Arrows Brewing LLC",
  "clr": "k",
  "cty": "US",
  "id": 135073831,
  "lat": 38.086836,
  "name": "Seven Arrows Brewing LLC"
}, {
  "address": "110 College Street #b, Clarksville",
  "b": 0,
  "c": "F",
  "s": "110 College Street #b",
  "lng": -78.566093,
  "city": "Clarksville",
  "ov": "Buggs Island Brewing Company LLC",
  "clr": "f",
  "cty": "US",
  "id": 134282918,
  "lat": 36.61868,
  "name": "Buggs Island Brewing Company LLC"
}, {
  "address": "81 Patch Road, Hampton",
  "b": 0,
  "c": "F",
  "s": "81 Patch Road",
  "lng": -76.304697,
  "city": "Hampton",
  "ov": "The Oozlefinch Craft Brewery",
  "clr": "c",
  "cty": "US",
  "id": 135085953,
  "lat": 37.00888,
  "name": "The Oozlefinch Craft Brewery"
}, {
  "address": "116 East 25th Street, Norfolk",
  "b": 0,
  "c": "F",
  "s": "116 East 25th Street",
  "lng": -76.283132,
  "city": "Norfolk",
  "ov": "Rip Rap Brewing Co.",
  "clr": "c",
  "cty": "US",
  "id": 135145770,
  "lat": 36.870304,
  "name": "Rip Rap Brewing Co."
}, {
  "address": "7134 Farm Station Road, Warrenton",
  "b": 0,
  "c": "F",
  "s": "7134 Farm Station Road",
  "lng": -77.675509,
  "city": "Warrenton",
  "ov": "Old Bust Head Brewing Company",
  "clr": "B",
  "cty": "US",
  "id": 134285500,
  "lat": 38.743909,
  "name": "Old Bust Head Brewing Company"
}, {
  "address": "120 West Wolfe Street, Harrisonburg",
  "b": 0,
  "c": "F",
  "s": "120 West Wolfe Street",
  "lng": -78.870716,
  "city": "Harrisonburg",
  "ov": "Wolfe Street Brewing",
  "clr": "k",
  "cty": "US",
  "id": 135086135,
  "lat": 38.451994,
  "name": "Wolfe Street Brewing"
}, {
  "address": "2277 Dabney Road, Richmond",
  "b": 0,
  "c": "F",
  "s": "2277 Dabney Road",
  "lng": -77.48309,
  "city": "Richmond",
  "ov": "Strangeways Brewing",
  "clr": "r",
  "cty": "US",
  "id": 135073886,
  "lat": 37.586376,
  "name": "Strangeways Brewing"
}, {
  "address": "1180 Seminole Trail, Charlottesville",
  "b": 0,
  "c": "F",
  "s": "1180 Seminole Trail",
  "lng": -78.487292,
  "city": "Charlottesville",
  "ov": "Reason Beer",
  "clr": "b",
  "cty": "US",
  "id": 145929381,
  "lat": 38.070249,
  "name": "Reason Beer"
}, {
  "address": "3066 Gate House Plaza, Falls Church",
  "b": 0,
  "c": "F",
  "s": "3066 Gate House Plaza",
  "lng": -77.228444,
  "city": "Falls Church",
  "ov": "Sweetwater Tavern",
  "clr": "n",
  "cty": "US",
  "id": 135085864,
  "lat": 38.866569,
  "name": "Sweetwater Tavern"
}, {
  "address": "7679 Limestone Drive #130, Gainesville",
  "b": 0,
  "c": "F",
  "s": "7679 Limestone Drive #130",
  "lng": -77.597021,
  "city": "Gainesville",
  "ov": "Tin Cannon Brewing Co. (TCBC)",
  "clr": "B",
  "cty": "US",
  "id": 135086012,
  "lat": 38.790415,
  "name": "Tin Cannon Brewing Co. (TCBC)"
}, {
  "address": "212 East Washington Street, Suffolk",
  "b": 0,
  "c": "F",
  "s": "212 East Washington Street",
  "lng": -76.58029,
  "city": "Suffolk",
  "ov": "Brick & Mortar Brewing Company",
  "clr": "address",
  "cty": "US",
  "id": 153197190,
  "lat": 36.727745,
  "name": "Brick & Mortar Brewing Company"
}, {
  "address": "1717 East Franklin Street, Richmond",
  "b": 0,
  "c": "F",
  "s": "1717 East Franklin Street",
  "lng": -77.427176,
  "city": "Richmond",
  "ov": "Lickinghole Goodwater Brew Pub",
  "clr": "f",
  "cty": "US",
  "id": 166752919,
  "lat": 37.533826,
  "name": "Lickinghole Goodwater Brew Pub"
}, {
  "address": "9436 Center Point Lane, Manassas",
  "b": 0,
  "c": "F",
  "s": "9436 Center Point Lane",
  "lng": -77.489544,
  "city": "Manassas",
  "ov": "Heritage Brewing Co",
  "clr": "n",
  "cty": "US",
  "id": 134284889,
  "lat": 38.752225,
  "name": "Heritage Brewing Co"
}, {
  "address": "1805 Laskin Road, Virginia Beach",
  "b": 0,
  "c": "F",
  "s": "1805 Laskin Road",
  "lng": -76.027395,
  "city": "Virginia Beach",
  "ov": "Wasserhund Brewing Company",
  "clr": "c",
  "cty": "US",
  "id": 135086061,
  "lat": 36.849099,
  "name": "Wasserhund Brewing Company"
}, {
  "address": "2425 Robert E Lee Road, Powhatan",
  "b": 0,
  "c": "F",
  "s": "2425 Robert E Lee Road",
  "lng": -77.8174,
  "city": "Powhatan",
  "ov": "Fine Creek Brewing Company",
  "clr": "r",
  "cty": "US",
  "id": 139437152,
  "lat": 37.597382,
  "name": "Fine Creek Brewing Company"
}, {
  "address": "3071 Jefferson Davis Highway, Stafford",
  "b": 0,
  "c": "F",
  "s": "3071 Jefferson Davis Highway",
  "lng": -77.399801,
  "city": "Stafford",
  "ov": "Wild Run Brewing Company",
  "clr": "address",
  "cty": "US",
  "id": 135086081,
  "lat": 38.471234,
  "name": "Wild Run Brewing Company"
}, {
  "address": "9419 Main Street, Manassas",
  "b": 0,
  "c": "F",
  "s": "9419 Main Street",
  "lng": -77.47119,
  "city": "Manassas",
  "ov": "Sinistral Brewing Company",
  "clr": "n",
  "cty": "US",
  "id": 146004486,
  "lat": 38.750646,
  "name": "Sinistral Brewing Company"
}, {
  "address": "11424 Washington Plaza West, Reston",
  "b": 0,
  "c": "F",
  "s": "11424 Washington Plaza West",
  "lng": -77.341215,
  "city": "Reston",
  "ov": "Lake Anne Brew House LLC",
  "clr": "n",
  "cty": "US",
  "id": 134285086,
  "lat": 38.968425,
  "name": "Lake Anne Brew House LLC"
}, {
  "address": "42245 Black Hops Lane, Leesburg",
  "b": 0,
  "c": "F",
  "s": "42245 Black Hops Lane",
  "lng": -77.537967,
  "city": "Leesburg",
  "ov": "Vanish Farmwoods Brewery",
  "clr": "p",
  "cty": "US",
  "id": 135086054,
  "lat": 39.22336,
  "name": "Vanish Farmwoods Brewery"
}, {
  "address": "44 West Church Street, Kilmarnock",
  "b": 0,
  "c": "F",
  "s": "44 West Church Street",
  "lng": -76.381765,
  "city": "Kilmarnock",
  "ov": "Kilmarnock Brewhaus",
  "clr": "f",
  "cty": "US",
  "id": 167068081,
  "lat": 37.710709,
  "name": "Kilmarnock Brewhaus"
}, {
  "address": "234 West King Street, Strasburg",
  "b": 0,
  "c": "F",
  "s": "234 West King Street",
  "lng": -78.364121,
  "city": "Strasburg",
  "ov": "Siblings' Rivalry Brewery, LLC",
  "clr": "address",
  "cty": "US",
  "id": 153197480,
  "lat": 38.989936,
  "name": "Siblings' Rivalry Brewery, LLC"
}, {
  "address": "727 Granby Street, Norfolk",
  "b": 0,
  "c": "F",
  "s": "727 Granby Street",
  "lng": -76.288533,
  "city": "Norfolk",
  "ov": "Bearded Bird Brewing",
  "clr": "f",
  "cty": "US",
  "id": 142924067,
  "lat": 36.855161,
  "name": "Bearded Bird Brewing"
}, {
  "address": "20 South Mason Street, Harrisonburg",
  "b": 0,
  "c": "F",
  "s": "20 South Mason Street",
  "lng": -78.866511,
  "city": "Harrisonburg",
  "ov": "Friendly Fermenter",
  "clr": "k",
  "cty": "US",
  "id": 165464158,
  "lat": 38.448824,
  "name": "Friendly Fermenter"
}, {
  "address": "23600 Overland Drive #180, Sterling",
  "b": 0,
  "c": "F",
  "s": "23600 Overland Drive #180",
  "lng": -77.499252,
  "city": "Sterling",
  "ov": "Ocelot Brewing Company",
  "clr": "p",
  "cty": "US",
  "id": 134285430,
  "lat": 38.962999,
  "name": "Ocelot Brewing Company"
}, {
  "address": "2410 Ownby Lane, Richmond",
  "b": 0,
  "c": "F",
  "s": "2410 Ownby Lane",
  "lng": -77.457423,
  "city": "Richmond",
  "ov": "Hardywood Park Craft Brewery LLC",
  "clr": "r",
  "cty": "US",
  "id": 134284523,
  "lat": 37.565032,
  "name": "Hardywood Park Craft Brewery LLC"
}, {
  "address": "505 18th Street, Virginia Beach",
  "b": 0,
  "c": "F",
  "s": "505 18th Street",
  "lng": -75.980225,
  "city": "Virginia Beach",
  "ov": "Vibrant Shore Brewing Co.",
  "clr": "address",
  "cty": "US",
  "id": 168873726,
  "lat": 36.845637,
  "name": "Vibrant Shore Brewing Co."
}, {
  "address": "504 North King Street, Hampton",
  "b": 0,
  "c": "F",
  "s": "504 North King Street",
  "lng": -76.345383,
  "city": "Hampton",
  "ov": "The Vanguard Brewpub and Distillery",
  "clr": "address",
  "cty": "US",
  "id": 168875482,
  "lat": 37.031283,
  "name": "The Vanguard Brewpub and Distillery"
}, {
  "address": "310 East Market Street, Leesburg",
  "b": 0,
  "c": "F",
  "s": "310 East Market Street",
  "lng": -77.558997,
  "city": "Leesburg",
  "ov": "Loudoun Brewing Co",
  "clr": "p",
  "cty": "US",
  "id": 134285151,
  "lat": 39.112764,
  "name": "Loudoun Brewing Co"
}, {
  "address": "1717 Oak Lake Boulevard, Midlothian",
  "b": 0,
  "c": "F",
  "s": "1717 Oak Lake Boulevard",
  "lng": -77.625576,
  "city": "Midlothian",
  "ov": "Steam Bell Beer Works",
  "clr": "r",
  "cty": "US",
  "id": 135073872,
  "lat": 37.456036,
  "name": "Steam Bell Beer Works"
}, {
  "address": "204 Challenger Way, Hampton",
  "b": 0,
  "c": "F",
  "s": "204 Challenger Way",
  "lng": -76.39448,
  "city": "Hampton",
  "ov": "St. George Brewing Company",
  "clr": "c",
  "cty": "US",
  "id": 135073857,
  "lat": 37.099888,
  "name": "St. George Brewing Company"
}, {
  "address": "735 East 23rd Street, Norfolk",
  "b": 0,
  "c": "F",
  "s": "735 East 23rd Street",
  "lng": -76.278584,
  "city": "Norfolk",
  "ov": "Maker's Craft Brewery",
  "clr": "address",
  "cty": "US",
  "id": 153197230,
  "lat": 36.868138,
  "name": "Maker's Craft Brewery"
}, {
  "address": "561 Valley Street, Scottsville",
  "b": 0,
  "c": "F",
  "s": "561 Valley Street",
  "lng": -78.495914,
  "city": "Scottsville",
  "ov": "James River Brewery",
  "clr": "b",
  "cty": "US",
  "id": 134284998,
  "lat": 37.800472,
  "name": "James River Brewery"
}, {
  "address": "1129 Boissevain Avenue, Norfolk",
  "b": 0,
  "c": "F",
  "s": "1129 Boissevain Avenue",
  "lng": -76.307815,
  "city": "Norfolk",
  "ov": "Benchtop Brewing Company",
  "clr": "c",
  "cty": "US",
  "id": 134282709,
  "lat": 36.864732,
  "name": "Benchtop Brewing Company"
}, {
  "address": "32173 Government Road, Damascus",
  "b": 0,
  "c": "F",
  "s": "32173 Government Road",
  "lng": -81.80217,
  "city": "Damascus",
  "ov": "The Damascus Brewery",
  "clr": "u",
  "cty": "US",
  "id": 135085947,
  "lat": 36.640222,
  "name": "The Damascus Brewery"
}, {
  "address": "2351 Glade Road, Blacksburg",
  "b": 0,
  "c": "F",
  "s": "2351 Glade Road",
  "lng": -80.461454,
  "city": "Blacksburg",
  "ov": "Rising Silo Brewery",
  "clr": "u",
  "cty": "US",
  "id": 135073778,
  "lat": 37.237313,
  "name": "Rising Silo Brewery"
}, {
  "address": "555 International Parkway, Daleville",
  "b": 0,
  "c": "F",
  "s": "555 International Parkway",
  "lng": -79.913349,
  "city": "Daleville",
  "ov": "Ballast Point: Virginia",
  "clr": "y",
  "cty": "US",
  "id": 144175524,
  "lat": 37.435476,
  "name": "Ballast Point: Virginia"
}, {
  "address": "14250 Sweetwater Lane, Centreville",
  "b": 0,
  "c": "F",
  "s": "14250 Sweetwater Lane",
  "lng": -77.439159,
  "city": "Centreville",
  "ov": "Sweetwater Tavern",
  "clr": "n",
  "cty": "US",
  "id": 135085856,
  "lat": 38.829236,
  "name": "Sweetwater Tavern"
}, {
  "address": "9901 Discovery Boulevard, Manassas",
  "b": 0,
  "c": "F",
  "s": "9901 Discovery Boulevard",
  "lng": -77.522155,
  "city": "Manassas",
  "ov": "Farm Brew Live",
  "clr": "n",
  "cty": "US",
  "id": 153381249,
  "lat": 38.742932,
  "name": "Farm Brew Live"
}, {
  "address": "1470 South Main Street #120, Blacksburg",
  "b": 0,
  "c": "F",
  "s": "1470 South Main Street #120",
  "lng": -80.402283,
  "city": "Blacksburg",
  "ov": "Bull & Bones Brewhaus & Grill",
  "clr": "u",
  "cty": "US",
  "id": 134282935,
  "lat": 37.213508,
  "name": "Bull & Bones Brewhaus & Grill"
}, {
  "address": "217 South Liberty Street #105, Harrisonburg",
  "b": 0,
  "c": "F",
  "s": "217 South Liberty Street #105",
  "lng": -78.87128,
  "city": "Harrisonburg",
  "ov": "Pale Fire Brewing Co",
  "clr": "k",
  "cty": "US",
  "id": 135073287,
  "lat": 38.44719,
  "name": "Pale Fire Brewing Co"
}, {
  "address": "23 North Loudoun Street, Winchester",
  "b": 0,
  "c": "F",
  "s": "23 North Loudoun Street",
  "lng": -78.165538,
  "city": "Winchester",
  "ov": "AleSatian Brewing Co",
  "clr": "s",
  "cty": "US",
  "id": 134279524,
  "lat": 39.184273,
  "name": "AleSatian Brewing Co"
}, {
  "address": "115 South 15th Street, Richmond",
  "b": 0,
  "c": "F",
  "s": "115 South 15th Street",
  "lng": -77.431289,
  "city": "Richmond",
  "ov": "Shiplock Brewing",
  "clr": "address",
  "cty": "US",
  "id": 175236528,
  "lat": 37.533115,
  "name": "Shiplock Brewing"
}, {
  "address": "4176 Swover Creek Road, Edinburg",
  "b": 0,
  "c": "F",
  "s": "4176 Swover Creek Road",
  "lng": -78.664592,
  "city": "Edinburg",
  "ov": "Swover Creek Farms Farm Brewery",
  "clr": "s",
  "cty": "US",
  "id": 139441094,
  "lat": 38.841443,
  "name": "Swover Creek Farms Farm Brewery"
}, {
  "address": "200 Mosbys Run, Roseland",
  "b": 0,
  "c": "F",
  "s": "200 Mosbys Run",
  "lng": -78.918598,
  "city": "Roseland",
  "ov": "Devils Backbone Brewing Co",
  "clr": "b",
  "cty": "US",
  "id": 134283572,
  "lat": 37.871268,
  "name": "Devils Backbone Brewing Co"
}, {
  "address": "4561 Virginia Beach Boulevard, Virginia Beach",
  "b": 0,
  "c": "F",
  "s": "4561 Virginia Beach Boulevard",
  "lng": -76.134593,
  "city": "Virginia Beach",
  "ov": "Gordon Biersch Brewery Restaurant - Virginia Beach",
  "clr": "c",
  "cty": "US",
  "id": 134283778,
  "lat": 36.843206,
  "name": "Gordon Biersch Brewery Restaurant - Virginia Beach"
}, {
  "address": "1529 West Main Street, Richmond",
  "b": 0,
  "c": "F",
  "s": "1529 West Main Street",
  "lng": -77.460552,
  "city": "Richmond",
  "ov": "Canon & Draw Brewing Company",
  "clr": "address",
  "cty": "US",
  "id": 145015737,
  "lat": 37.547217,
  "name": "Canon & Draw Brewing Company"
}, {
  "address": "22455 Davis Drive, Sterling",
  "b": 0,
  "c": "F",
  "s": "22455 Davis Drive",
  "lng": -77.423158,
  "city": "Sterling",
  "ov": "Crooked Run Central",
  "clr": "p",
  "cty": "US",
  "id": 134283532,
  "lat": 38.994762,
  "name": "Crooked Run Central"
}, {
  "address": "8096 Flannery Court, Manassas",
  "b": 0,
  "c": "F",
  "s": "8096 Flannery Court",
  "lng": -77.557271,
  "city": "Manassas",
  "ov": "Tin Cannon Brewing",
  "clr": "address",
  "cty": "US",
  "id": 153382917,
  "lat": 38.783108,
  "name": "Tin Cannon Brewing"
}, {
  "address": "44652 Guilford Drive #114, Ashburn",
  "b": 0,
  "c": "F",
  "s": "44652 Guilford Drive #114",
  "lng": -77.455315,
  "city": "Ashburn",
  "ov": "Old Ox Brewery",
  "clr": "p",
  "cty": "US",
  "id": 134285515,
  "lat": 39.0239,
  "name": "Old Ox Brewery"
}, {
  "address": "101 Executive Drive, Sterling",
  "b": 0,
  "c": "F",
  "s": "101 Executive Drive",
  "lng": -77.444352,
  "city": "Sterling",
  "ov": "Twinpanzee Brewing Co.",
  "clr": "p",
  "cty": "US",
  "id": 146273520,
  "lat": 38.984397,
  "name": "Twinpanzee Brewing Co."
}, {
  "address": "11800 West Broad Street #2098, Richmond",
  "b": 0,
  "c": "F",
  "s": "11800 West Broad Street #2098",
  "lng": -77.619236,
  "city": "Richmond",
  "ov": "Rock Bottom Restaurant & Brewery",
  "clr": "r",
  "cty": "US",
  "id": 135073795,
  "lat": 37.656888,
  "name": "Rock Bottom Restaurant & Brewery"
}, {
  "address": "3060 Riner Road, Christiansburg",
  "b": 0,
  "c": "F",
  "s": "3060 Riner Road",
  "lng": -80.450851,
  "city": "Christiansburg",
  "ov": "Sinkland Farms Brewery",
  "clr": "u",
  "cty": "US",
  "id": 158543367,
  "lat": 37.087701,
  "name": "Sinkland Farms Brewery"
}, {
  "address": "22 Zerkel Street, Luray",
  "b": 0,
  "c": "F",
  "s": "22 Zerkel Street",
  "lng": -78.458055,
  "city": "Luray",
  "ov": "Hawksbill Brewing Co",
  "clr": "s",
  "cty": "US",
  "id": 139438866,
  "lat": 38.664745,
  "name": "Hawksbill Brewing Co"
}, {
  "address": "221 Moore Street, Bristol",
  "b": 0,
  "c": "F",
  "s": "221 Moore Street",
  "lng": -82.182566,
  "city": "Bristol",
  "ov": "Studio Brew LLC",
  "clr": "u",
  "cty": "US",
  "id": 135073920,
  "lat": 36.597745,
  "name": "Studio Brew LLC"
}, {
  "address": "122 East Main Street, Front Royal",
  "b": 0,
  "c": "F",
  "s": "122 East Main Street",
  "lng": -78.191967,
  "city": "Front Royal",
  "ov": "Front Royal Brewing Company",
  "clr": "address",
  "cty": "US",
  "id": 153197475,
  "lat": 38.918061,
  "name": "Front Royal Brewing Company"
}, {
  "address": "1140 International Parkway, Fredericksburg",
  "b": 0,
  "c": "F",
  "s": "1140 International Parkway",
  "lng": -77.514211,
  "city": "Fredericksburg",
  "ov": "6 Bears & A Goat Brewing Company",
  "clr": "g",
  "cty": "US",
  "id": 134278949,
  "lat": 38.36228,
  "name": "6 Bears & A Goat Brewing Company"
}, {
  "address": "189-B Ewell Road, Williamsburg",
  "b": 0,
  "c": "F",
  "s": "189-B Ewell Road",
  "lng": -76.732288,
  "city": "Williamsburg",
  "ov": "AleWerks Brewing Company",
  "clr": "c",
  "cty": "US",
  "id": 135086104,
  "lat": 37.320719,
  "name": "AleWerks Brewing Company"
}, {
  "address": "14140 Parke Long Court #A-C, Chantilly",
  "b": 0,
  "c": "F",
  "s": "14140 Parke Long Court #A-C",
  "lng": -77.437605,
  "city": "Chantilly",
  "ov": "Mustang Sally Brewing Company LLC",
  "clr": "n",
  "cty": "US",
  "id": 134285279,
  "lat": 38.892234,
  "name": "Mustang Sally Brewing Company LLC"
}, {
  "address": "34 East Broad Way, Lovettsville",
  "b": 0,
  "c": "F",
  "s": "34 East Broad Way",
  "lng": -77.635923,
  "city": "Lovettsville",
  "ov": "Mad Horse Brewpub",
  "clr": "p",
  "cty": "US",
  "id": 134285188,
  "lat": 39.271696,
  "name": "Mad Horse Brewpub"
}, {
  "address": "1296 Battlefield Boulevard South #104, Chesapeake",
  "b": 0,
  "c": "F",
  "s": "1296 Battlefield Boulevard South #104",
  "lng": -76.228467,
  "city": "Chesapeake",
  "ov": "Big Ugly Brewing Company LLC",
  "clr": "c",
  "cty": "US",
  "id": 134282742,
  "lat": 36.678666,
  "name": "Big Ugly Brewing Company LLC"
}, {
  "address": "3950 Wheeler Avenue, Alexandria",
  "b": 0,
  "c": "F",
  "s": "3950 Wheeler Avenue",
  "lng": -77.101423,
  "city": "Alexandria",
  "ov": "Port City Brewing Company",
  "clr": "n",
  "cty": "US",
  "id": 135073334,
  "lat": 38.807959,
  "name": "Port City Brewing Company"
}, {
  "address": "4522 Chicken City Road, Chincoteague Island",
  "b": 0,
  "c": "F",
  "s": "4522 Chicken City Road",
  "lng": -75.363575,
  "city": "Chincoteague Island",
  "ov": "Black Narrows Brewing",
  "clr": "f",
  "cty": "US",
  "id": 144173247,
  "lat": 37.930518,
  "name": "Black Narrows Brewing"
}, {
  "address": "6135 Rockfish Gap Turnpike, Crozet",
  "b": 0,
  "c": "F",
  "s": "6135 Rockfish Gap Turnpike",
  "lng": -78.713882,
  "city": "Crozet",
  "ov": "Pro Re Nata Brewing Company, LLC",
  "clr": "b",
  "cty": "US",
  "id": 135073482,
  "lat": 38.048378,
  "name": "Pro Re Nata Brewing Company, LLC"
}, {
  "address": "515 8th Street Southwest, Roanoke",
  "b": 0,
  "c": "F",
  "s": "515 8th Street Southwest",
  "lng": -79.955766,
  "city": "Roanoke",
  "ov": "A Few Old Goats Brewing",
  "clr": "address",
  "cty": "US",
  "id": 166696009,
  "lat": 37.27039,
  "name": "A Few Old Goats Brewing"
}, {
  "address": "111 East Main Street, Charlottesville",
  "b": 0,
  "c": "F",
  "s": "111 East Main Street",
  "lng": -78.48108,
  "city": "Charlottesville",
  "ov": "Brasserie Saison",
  "clr": "b",
  "cty": "US",
  "id": 139437050,
  "lat": 38.030905,
  "name": "Brasserie Saison"
}, {
  "address": "3331 West Moore Street, Richmond",
  "b": 0,
  "c": "F",
  "s": "3331 West Moore Street",
  "lng": -77.472333,
  "city": "Richmond",
  "ov": "Väsen Brewing Company",
  "clr": "r",
  "cty": "US",
  "id": 135096276,
  "lat": 37.569865,
  "name": "Väsen Brewing Company"
}, {
  "address": "1410 South Main Street, Blacksburg",
  "b": 0,
  "c": "F",
  "s": "1410 South Main Street",
  "lng": -80.400964,
  "city": "Blacksburg",
  "ov": "Right Mind Brewing",
  "clr": "u",
  "cty": "US",
  "id": 134285105,
  "lat": 37.215289,
  "name": "Right Mind Brewing"
}, {
  "address": "106 South Railroad Avenue, Ashland",
  "b": 0,
  "c": "F",
  "s": "106 South Railroad Avenue",
  "lng": -77.48172,
  "city": "Ashland",
  "ov": "Center of the Universe Origin",
  "clr": "r",
  "cty": "US",
  "id": 134283373,
  "lat": 37.758393,
  "name": "Center of the Universe Origin"
}, {
  "address": "946 Grady Avenue, Charlottesville",
  "b": 0,
  "c": "F",
  "s": "946 Grady Avenue",
  "lng": -78.490963,
  "city": "Charlottesville",
  "ov": "Three Notch'd Brewing Company",
  "clr": "b",
  "cty": "US",
  "id": 135085996,
  "lat": 38.038105,
  "name": "Three Notch'd Brewing Company"
}, {
  "address": "8532 Terminal Road #l, Lorton",
  "b": 0,
  "c": "F",
  "s": "8532 Terminal Road #l",
  "lng": -77.19693,
  "city": "Lorton",
  "ov": "Forge Brew Works",
  "clr": "n",
  "cty": "US",
  "id": 134283705,
  "lat": 38.727601,
  "name": "Forge Brew Works"
}, {
  "address": "7861 Tysons Corner Center, McLean",
  "b": 0,
  "c": "F",
  "s": "7861 Tysons Corner Center",
  "lng": -77.21886,
  "city": "McLean",
  "ov": "Gordon Biersch Brewery Restaurant",
  "clr": "n",
  "cty": "US",
  "id": 134283805,
  "lat": 38.917468,
  "name": "Gordon Biersch Brewery Restaurant"
}, {
  "address": "7801 Pocahontas Trail, Williamsburg",
  "b": 0,
  "c": "F",
  "s": "7801 Pocahontas Trail",
  "lng": -76.652862,
  "city": "Williamsburg",
  "ov": "Anheuser Busch",
  "clr": "j",
  "cty": "US",
  "id": 134280288,
  "lat": 37.237906,
  "name": "Anheuser Busch"
}, {
  "address": "47 Main Street, Sperryville",
  "b": 0,
  "c": "F",
  "s": "47 Main Street",
  "lng": -78.226932,
  "city": "Sperryville",
  "ov": "Hopkins Ordinary Ale Works",
  "clr": "s",
  "cty": "US",
  "id": 134284917,
  "lat": 38.657745,
  "name": "Hopkins Ordinary Ale Works"
}, {
  "address": "9519 Critzers Shop Road, Afton",
  "b": 0,
  "c": "F",
  "s": "9519 Critzers Shop Road",
  "lng": -78.821844,
  "city": "Afton",
  "ov": "Blue Mountain Brewery",
  "clr": "b",
  "cty": "US",
  "id": 134282846,
  "lat": 38.016134,
  "name": "Blue Mountain Brewery"
}, {
  "address": "2505 Horse Pasture Road, Virginia Beach",
  "b": 0,
  "c": "F",
  "s": "2505 Horse Pasture Road",
  "lng": -76.055498,
  "city": "Virginia Beach",
  "ov": "Young Veterans Brewing Company",
  "clr": "c",
  "cty": "US",
  "id": 135086161,
  "lat": 36.786347,
  "name": "Young Veterans Brewing Company"
}, {
  "address": "241 East Market Street, Harrisonburg",
  "b": 0,
  "c": "F",
  "s": "241 East Market Street",
  "lng": -78.865548,
  "city": "Harrisonburg",
  "ov": "Three Notchd Brewing Company",
  "clr": "k",
  "cty": "US",
  "id": 135086005,
  "lat": 38.448706,
  "name": "Three Notchd Brewing Company"
}, {
  "address": "520 Mill Street Northeast, Vienna",
  "b": 0,
  "c": "F",
  "s": "520 Mill Street Northeast",
  "lng": -77.270579,
  "city": "Vienna",
  "ov": "Caboose Brewing Company LLC",
  "clr": "n",
  "cty": "US",
  "id": 134283037,
  "lat": 38.907732,
  "name": "Caboose Brewing Company LLC"
}, {
  "address": "41 Piedmont Avenue, Bristol",
  "b": 0,
  "c": "F",
  "s": "41 Piedmont Avenue",
  "lng": -82.184203,
  "city": "Bristol",
  "ov": "Bristol Station Brews & Taproom",
  "clr": "u",
  "cty": "US",
  "id": 134282902,
  "lat": 36.596295,
  "name": "Bristol Station Brews & Taproom"
}, {
  "address": "8300 Merrifield Avenue, Fairfax",
  "b": 0,
  "c": "F",
  "s": "8300 Merrifield Avenue",
  "lng": -77.231386,
  "city": "Fairfax",
  "ov": "Mosaic Brew Works",
  "clr": "address",
  "cty": "US",
  "id": 153197328,
  "lat": 38.878395,
  "name": "Mosaic Brew Works"
}, {
  "address": "16622 Broad Street, Saint Paul",
  "b": 0,
  "c": "F",
  "s": "16622 Broad Street",
  "lng": -82.310122,
  "city": "Saint Paul",
  "ov": "Sugar Hill Brewing Company",
  "clr": "u",
  "cty": "US",
  "id": 135073940,
  "lat": 36.904818,
  "name": "Sugar Hill Brewing Company"
}, {
  "address": "15381 Kings Highway #b, Montross",
  "b": 0,
  "c": "F",
  "s": "15381 Kings Highway #b",
  "lng": -76.833965,
  "city": "Montross",
  "ov": "Montross Brewery",
  "clr": "f",
  "cty": "US",
  "id": 134285230,
  "lat": 38.093182,
  "name": "Montross Brewery"
}, {
  "address": "523 Shenandoah Avenue Northwest, Roanoke",
  "b": 0,
  "c": "F",
  "s": "523 Shenandoah Avenue Northwest",
  "lng": -79.950301,
  "city": "Roanoke",
  "ov": "Soaring Ridge Craft Brewers",
  "clr": "y",
  "cty": "US",
  "id": 135073845,
  "lat": 37.275118,
  "name": "Soaring Ridge Craft Brewers"
}, {
  "address": "202 Harrison Street Southeast, Leesburg",
  "b": 0,
  "c": "F",
  "s": "202 Harrison Street Southeast",
  "lng": -77.562465,
  "city": "Leesburg",
  "ov": "Mac Dowell Brew Kitchen",
  "clr": "p",
  "cty": "US",
  "id": 134285170,
  "lat": 39.11258,
  "name": "Mac Dowell Brew Kitchen"
}, {
  "address": "Lebanon",
  "b": 0,
  "c": "F",
  "s": "",
  "lng": -82.080131,
  "city": "Lebanon",
  "ov": "Wicked Cedar Brewing Company",
  "clr": "address",
  "cty": "US",
  "id": 172041600,
  "lat": 36.900942,
  "name": "Wicked Cedar Brewing Company"
}, {
  "address": "8420 Kao Circle, Manassas",
  "b": 0,
  "c": "F",
  "s": "8420 Kao Circle",
  "lng": -77.449389,
  "city": "Manassas",
  "ov": "BadWolf Brewhouse",
  "clr": "n",
  "cty": "US",
  "id": 134282299,
  "lat": 38.761757,
  "name": "BadWolf Brewhouse"
}, {
  "address": "34266 Williams Gap Road, Round Hill",
  "b": 0,
  "c": "F",
  "s": "34266 Williams Gap Road",
  "lng": -77.827505,
  "city": "Round Hill",
  "ov": "B Chord Brewing Company",
  "clr": "p",
  "cty": "US",
  "id": 153197289,
  "lat": 39.121366,
  "name": "B Chord Brewing Company"
}, {
  "address": "4100 Knolls Point Drive, Goochland",
  "b": 0,
  "c": "F",
  "s": "4100 Knolls Point Drive",
  "lng": -78.009121,
  "city": "Goochland",
  "ov": "Lickinghole Creek Craft Brewery",
  "clr": "r",
  "cty": "US",
  "id": 134285126,
  "lat": 37.743288,
  "name": "Lickinghole Creek Craft Brewery"
}, {
  "address": "350 Park Street Southeast, Abingdon",
  "b": 0,
  "c": "F",
  "s": "350 Park Street Southeast",
  "lng": -81.965605,
  "city": "Abingdon",
  "ov": "Wolf Hills Brewing Company",
  "clr": "u",
  "cty": "US",
  "id": 135086131,
  "lat": 36.712306,
  "name": "Wolf Hills Brewing Company"
}, {
  "address": "25 Main Street, Smithfield",
  "b": 0,
  "c": "F",
  "s": "25 Main Street",
  "lng": -76.630332,
  "city": "Smithfield",
  "ov": "Wharf Hill Brewing Company",
  "clr": "c",
  "cty": "US",
  "id": 135086070,
  "lat": 36.982531,
  "name": "Wharf Hill Brewing Company"
}, {
  "address": "Orange",
  "b": 0,
  "c": "F",
  "s": "",
  "lng": -78.110834,
  "city": "Orange",
  "ov": "Ascetic Brewing",
  "clr": "address",
  "cty": "US",
  "id": 172041049,
  "lat": 38.245411,
  "name": "Ascetic Brewing"
}, {
  "address": "2117 Bruno Drive, Goodview",
  "b": 0,
  "c": "F",
  "s": "2117 Bruno Drive",
  "lng": -79.708193,
  "city": "Goodview",
  "ov": "White Rock Vineyard Winery & Brew Haus",
  "clr": "y",
  "cty": "US",
  "id": 135086078,
  "lat": 37.23171,
  "name": "White Rock Vineyard Winery & Brew Haus"
}, {
  "address": "177 East King Street, Strasburg",
  "b": 0,
  "c": "F",
  "s": "177 East King Street",
  "lng": -78.360481,
  "city": "Strasburg",
  "ov": "Box Office Brewery",
  "clr": "address",
  "cty": "US",
  "id": 153197424,
  "lat": 38.989003,
  "name": "Box Office Brewery"
}, {
  "address": "800 North Main Street, Harrisonburg",
  "b": 0,
  "c": "F",
  "s": "800 North Main Street",
  "lng": -78.86121,
  "city": "Harrisonburg",
  "ov": "Brothers Craft Brewing",
  "clr": "k",
  "cty": "US",
  "id": 134282911,
  "lat": 38.457613,
  "name": "Brothers Craft Brewing"
}, {
  "address": "1128 Hull Street, Richmond",
  "b": 0,
  "c": "F",
  "s": "1128 Hull Street",
  "lng": -77.443836,
  "city": "Richmond",
  "ov": "Manastoh Brewing",
  "clr": "address",
  "cty": "US",
  "id": 172040883,
  "lat": 37.520845,
  "name": "Manastoh Brewing"
}, {
  "address": "2709 South Oakland Street, Arlington",
  "b": 0,
  "c": "F",
  "s": "2709 South Oakland Street",
  "lng": -77.089718,
  "city": "Arlington",
  "ov": "New District Brewing Company",
  "clr": "n",
  "cty": "US",
  "id": 134285371,
  "lat": 38.843653,
  "name": "New District Brewing Company"
}, {
  "address": "332 Webbs Mill Road North, Floyd",
  "b": 0,
  "c": "F",
  "s": "332 Webbs Mill Road North",
  "lng": -80.325515,
  "city": "Floyd",
  "ov": "Buffalo Mountain Brewery",
  "clr": "u",
  "cty": "US",
  "id": 146003690,
  "lat": 36.921246,
  "name": "Buffalo Mountain Brewery"
}, {
  "address": "9269 Redemption Way, Midland",
  "b": 0,
  "c": "F",
  "s": "9269 Redemption Way",
  "lng": -77.73944,
  "city": "Midland",
  "ov": "Powers Farm & Brewery",
  "clr": "B",
  "cty": "US",
  "id": 135073377,
  "lat": 38.65331,
  "name": "Powers Farm & Brewery"
}, {
  "address": "6118 Lakeside Avenue, Henrico",
  "b": 0,
  "c": "F",
  "s": "6118 Lakeside Avenue",
  "lng": -77.470845,
  "city": "Henrico",
  "ov": "Final Gravity Brewing Co",
  "clr": "r",
  "cty": "US",
  "id": 134283650,
  "lat": 37.615196,
  "name": "Final Gravity Brewing Co"
}, {
  "address": "12425 Dillingham Square, Lake Ridge",
  "b": 0,
  "c": "F",
  "s": "12425 Dillingham Square",
  "lng": -77.316833,
  "city": "Lake Ridge",
  "ov": "Water's End Brewery",
  "clr": "n",
  "cty": "US",
  "id": 135086065,
  "lat": 38.684363,
  "name": "Water's End Brewery"
}, {
  "address": "608 Preston Ave Ste A, Charlottesville",
  "b": 0,
  "c": "F",
  "s": "608 Preston Ave Ste A",
  "lng": -78.486485,
  "city": "Charlottesville",
  "ov": "Random Row Brewing Company",
  "clr": "b",
  "cty": "US",
  "id": 135073729,
  "lat": 38.03502,
  "name": "Random Row Brewing Company"
}, {
  "address": "1 High Street, Portsmouth",
  "b": 0,
  "c": "F",
  "s": "1 High Street",
  "lng": -76.296613,
  "city": "Portsmouth",
  "ov": "Legend Brewing Depot",
  "clr": "f",
  "cty": "US",
  "id": 153421913,
  "lat": 36.834847,
  "name": "Legend Brewing Depot"
}, {
  "address": "700 Thimble Shoals Boulevard, Newport News",
  "b": 0,
  "c": "F",
  "s": "700 Thimble Shoals Boulevard",
  "lng": -76.47691,
  "city": "Newport News",
  "ov": "Tradition Brewing Company",
  "clr": "c",
  "cty": "US",
  "id": 135086021,
  "lat": 37.084591,
  "name": "Tradition Brewing Company"
}, {
  "address": "2036 Exploration Way, Hampton",
  "b": 0,
  "c": "F",
  "s": "2036 Exploration Way",
  "lng": -76.402589,
  "city": "Hampton",
  "ov": "Capstan Bar Brewing Company",
  "clr": "address",
  "cty": "US",
  "id": 145929108,
  "lat": 37.08315,
  "name": "Capstan Bar Brewing Company"
}, {
  "address": "40 Brewery Drive, Hardy, VA",
  "b": 0,
  "c": "F",
  "s": "40 Brewery Drive",
  "lng": -79.722649,
  "city": "Hardy, VA",
  "ov": "Sunken City Brewing Co",
  "clr": "y",
  "cty": "US",
  "id": 135079245,
  "lat": 37.118545,
  "name": "Sunken City Brewing Co"
}, {
  "address": "50 North Wind Lane, Lexington",
  "b": 0,
  "c": "F",
  "s": "50 North Wind Lane",
  "lng": -79.398246,
  "city": "Lexington",
  "ov": "Devils Backbone Brewing Co",
  "clr": "k",
  "cty": "US",
  "id": 134283588,
  "lat": 37.81389,
  "name": "Devils Backbone Brewing Co"
}, {
  "address": "760 West 22nd Street, Norfolk",
  "b": 0,
  "c": "F",
  "s": "760 West 22nd Street",
  "lng": -76.295493,
  "city": "Norfolk",
  "ov": "Coelacanth Brewing Co",
  "clr": "c",
  "cty": "US",
  "id": 134283454,
  "lat": 36.871772,
  "name": "Coelacanth Brewing Co"
}, {
  "address": "704 Dawn Street, Richmond",
  "b": 0,
  "c": "F",
  "s": "704 Dawn Street",
  "lng": -77.441413,
  "city": "Richmond",
  "ov": "Tabol Brewing",
  "clr": "address",
  "cty": "US",
  "id": 161818411,
  "lat": 37.562324,
  "name": "Tabol Brewing"
}, {
  "address": "142 West Commercial Street, Winchester",
  "b": 0,
  "c": "F",
  "s": "142 West Commercial Street",
  "lng": -78.163056,
  "city": "Winchester",
  "ov": "Escutcheon Brewing Co",
  "clr": "s",
  "cty": "US",
  "id": 134283617,
  "lat": 39.195368,
  "name": "Escutcheon Brewing Co"
}, {
  "address": "Sanctuary Trail Drive, Henrico",
  "b": 0,
  "c": "F",
  "s": "Sanctuary Trail Drive",
  "lng": -77.652039,
  "city": "Henrico",
  "ov": "Hardywood Park Craft Brewery: West Creek",
  "clr": "address",
  "cty": "US",
  "id": 168315753,
  "lat": 37.614126,
  "name": "Hardywood Park Craft Brewery: West Creek"
}, {
  "address": "50 Catoctin Circle Northeast #100, Leesburg",
  "b": 0,
  "c": "F",
  "s": "50 Catoctin Circle Northeast #100",
  "lng": -77.55407,
  "city": "Leesburg",
  "ov": "Dog Money Restaurant & Brewery",
  "clr": "p",
  "cty": "US",
  "id": 134283606,
  "lat": 39.112644,
  "name": "Dog Money Restaurant & Brewery"
}, {
  "address": "1300 North Fillmore Street, Arlington",
  "b": 0,
  "c": "F",
  "s": "1300 North Fillmore Street",
  "lng": -77.093153,
  "city": "Arlington",
  "ov": "Heritage Brewing Co. Market Common Brewpub & Roastery",
  "clr": "n",
  "cty": "US",
  "id": 146273389,
  "lat": 38.887915,
  "name": "Heritage Brewing Co. Market Common Brewpub & Roastery"
}, {
  "address": "Great Valley Lane, Natural Bridge",
  "b": 0,
  "c": "F",
  "s": "Great Valley Lane",
  "lng": -79.512362,
  "city": "Natural Bridge",
  "ov": "Great Valley Farm Brewery",
  "clr": "k",
  "cty": "US",
  "id": 134283942,
  "lat": 37.680817,
  "name": "Great Valley Farm Brewery"
}, {
  "address": "409 Salem Avenue Southwest, Roanoke",
  "b": 0,
  "c": "F",
  "s": "409 Salem Avenue Southwest",
  "lng": -79.949056,
  "city": "Roanoke",
  "ov": "Big Lick Brewing Company - West Station",
  "clr": "y",
  "cty": "US",
  "id": 146273587,
  "lat": 37.272376,
  "name": "Big Lick Brewing Company - West Station"
}, {
  "address": "Beech Grove Road, Roseland",
  "b": 0,
  "c": "F",
  "s": "Beech Grove Road",
  "lng": -78.953271,
  "city": "Roseland",
  "ov": "Bitter Pils Brewery",
  "clr": "address",
  "cty": "US",
  "id": 172040991,
  "lat": 37.879023,
  "name": "Bitter Pils Brewery"
}, {
  "address": "11 South King Street, Leesburg",
  "b": 0,
  "c": "F",
  "s": "11 South King Street",
  "lng": -77.564945,
  "city": "Leesburg",
  "ov": "Black Hoof Brewing Co",
  "clr": "p",
  "cty": "US",
  "id": 142924228,
  "lat": 39.115045,
  "name": "Black Hoof Brewing Co"
}, {
  "address": "2054 Jamestown Road, Williamsburg",
  "b": 0,
  "c": "F",
  "s": "2054 Jamestown Road",
  "lng": -76.779231,
  "city": "Williamsburg",
  "ov": "Billsburg Brewery",
  "clr": "f",
  "cty": "US",
  "id": 153197148,
  "lat": 37.226859,
  "name": "Billsburg Brewery"
}, {
  "address": "185 Homeplace Drive, Gate City",
  "b": 0,
  "c": "F",
  "s": "185 Homeplace Drive",
  "lng": -82.54253,
  "city": "Gate City",
  "ov": "Busted Still Brewery",
  "clr": "u",
  "cty": "US",
  "id": 134282957,
  "lat": 36.626663,
  "name": "Busted Still Brewery"
}, {
  "address": "9406 Battle Street, Manassas",
  "b": 0,
  "c": "F",
  "s": "9406 Battle Street",
  "lng": -77.472722,
  "city": "Manassas",
  "ov": "BadWolf Public House",
  "clr": "n",
  "cty": "US",
  "id": 144255210,
  "lat": 38.751338,
  "name": "BadWolf Public House"
}, {
  "address": "5104 Colley Avenue, Norfolk",
  "b": 0,
  "c": "F",
  "s": "5104 Colley Avenue",
  "lng": -76.294779,
  "city": "Norfolk",
  "ov": "Elation Brewing",
  "clr": "address",
  "cty": "US",
  "id": 168873833,
  "lat": 36.889623,
  "name": "Elation Brewing"
}, {
  "address": "307 Meadow Street, Galax",
  "b": 0,
  "c": "F",
  "s": "307 Meadow Street",
  "lng": -80.916382,
  "city": "Galax",
  "ov": "Creek Bottom Brewing LLC",
  "clr": "u",
  "cty": "US",
  "id": 134283502,
  "lat": 36.656617,
  "name": "Creek Bottom Brewing LLC"
}, {
  "address": "41 Beckham Street, Warrenton",
  "b": 0,
  "c": "F",
  "s": "41 Beckham Street",
  "lng": -77.795762,
  "city": "Warrenton",
  "ov": "Wort Hog Brewing Co",
  "clr": "B",
  "cty": "US",
  "id": 135086155,
  "lat": 38.711983,
  "name": "Wort Hog Brewing Co"
}, {
  "address": "7223 Centreville Road, Manassas",
  "b": 0,
  "c": "F",
  "s": "7223 Centreville Road",
  "lng": -77.446202,
  "city": "Manassas",
  "ov": "Eavesdrop Brewery",
  "clr": "n",
  "cty": "US",
  "id": 174185290,
  "lat": 38.798894,
  "name": "Eavesdrop Brewery"
}, {
  "address": "1010 East Main Street, Waynesboro",
  "b": 0,
  "c": "F",
  "s": "1010 East Main Street",
  "lng": -78.873634,
  "city": "Waynesboro",
  "ov": "Basic City Beer Co",
  "clr": "k",
  "cty": "US",
  "id": 134282514,
  "lat": 38.062807,
  "name": "Basic City Beer Co"
}, {
  "address": "1419 Princess Anne Street, Fredericksburg",
  "b": 0,
  "c": "F",
  "s": "1419 Princess Anne Street",
  "lng": -77.463507,
  "city": "Fredericksburg",
  "ov": "Red Dragon Brewery",
  "clr": "g",
  "cty": "US",
  "id": 135073748,
  "lat": 38.307925,
  "name": "Red Dragon Brewery"
}, {
  "address": "14389 Potomac Mills Road, Woodbridge",
  "b": 0,
  "c": "F",
  "s": "14389 Potomac Mills Road",
  "lng": -77.29302,
  "city": "Woodbridge",
  "ov": "Ornery Beer Co",
  "clr": "i",
  "cty": "US",
  "id": 134285531,
  "lat": 38.636487,
  "name": "Ornery Beer Co"
}, {
  "address": "22620 Davis Drive #110, Sterling",
  "b": 0,
  "c": "F",
  "s": "22620 Davis Drive #110",
  "lng": -77.417394,
  "city": "Sterling",
  "ov": "Beltway Brewing Co",
  "clr": "p",
  "cty": "US",
  "id": 134282694,
  "lat": 38.992233,
  "name": "Beltway Brewing Co"
}, {
  "address": "2410 Granite Ridge Road, Rockville",
  "b": 0,
  "c": "F",
  "s": "2410 Granite Ridge Road",
  "lng": -77.665338,
  "city": "Rockville",
  "ov": "Midnight Brewery LLC",
  "clr": "r",
  "cty": "US",
  "id": 134285214,
  "lat": 37.698371,
  "name": "Midnight Brewery LLC"
}, {
  "address": "70 Main Street, Boones Mill",
  "b": 0,
  "c": "F",
  "s": "70 Main Street",
  "lng": -79.954262,
  "city": "Boones Mill",
  "ov": "Hammer & Forge Brewing Company",
  "clr": "y",
  "cty": "US",
  "id": 134284005,
  "lat": 37.114967,
  "name": "Hammer & Forge Brewing Company"
}, {
  "address": "9278 Rockfish Valley Highway, Afton",
  "b": 0,
  "c": "F",
  "s": "9278 Rockfish Valley Highway",
  "lng": -78.833428,
  "city": "Afton",
  "ov": "Brewing Tree Beer Company",
  "clr": "address",
  "cty": "US",
  "id": 172040956,
  "lat": 37.96719,
  "name": "Brewing Tree Beer Company"
}, {
  "address": "130 East Main Street, Purcellville",
  "b": 0,
  "c": "F",
  "s": "130 East Main Street",
  "lng": -77.71357,
  "city": "Purcellville",
  "ov": "Dragon Hops Brewing",
  "clr": "address",
  "cty": "US",
  "id": 153197307,
  "lat": 39.136326,
  "name": "Dragon Hops Brewing"
}, {
  "address": "14051 Crown Court, Dale City",
  "b": 0,
  "c": "F",
  "s": "14051 Crown Court",
  "lng": -77.310081,
  "city": "Dale City",
  "ov": "Growling Bear Brewing Company",
  "clr": "n",
  "cty": "US",
  "id": 134283995,
  "lat": 38.650268,
  "name": "Growling Bear Brewing Company"
}, {
  "address": "21 East Main Street, Salem",
  "b": 0,
  "c": "F",
  "s": "21 East Main Street",
  "lng": -80.057898,
  "city": "Salem",
  "ov": "Olde Salem Brewing Company",
  "clr": "f",
  "cty": "US",
  "id": 144173486,
  "lat": 37.293101,
  "name": "Olde Salem Brewing Company"
}, {
  "address": "165 Old Ridge Road, Lovingston",
  "b": 0,
  "c": "F",
  "s": "165 Old Ridge Road",
  "lng": -78.826558,
  "city": "Lovingston",
  "ov": "Wood Ridge Farm Brewery",
  "clr": "b",
  "cty": "US",
  "id": 135086141,
  "lat": 37.829458,
  "name": "Wood Ridge Farm Brewery"
}, {
  "address": "3 Shuttle Court, Hampton",
  "b": 0,
  "c": "F",
  "s": "3 Shuttle Court",
  "lng": -76.395935,
  "city": "Hampton",
  "ov": "The Original Larry's Hard Lemonade Brewing Co",
  "clr": "f",
  "cty": "US",
  "id": 167073119,
  "lat": 37.101076,
  "name": "The Original Larry's Hard Lemonade Brewing Co"
}, {
  "address": "1301 Roseneath Road, Richmond",
  "b": 0,
  "c": "F",
  "s": "1301 Roseneath Road",
  "lng": -77.475215,
  "city": "Richmond",
  "ov": "The Veil Brewing Company",
  "clr": "r",
  "cty": "US",
  "id": 135085965,
  "lat": 37.568415,
  "name": "The Veil Brewing Company"
}, {
  "address": "211 West 24th Street, Norfolk",
  "b": 0,
  "c": "F",
  "s": "211 West 24th Street",
  "lng": -76.286371,
  "city": "Norfolk",
  "ov": "O'Connor Brewing Company",
  "clr": "c",
  "cty": "US",
  "id": 134285402,
  "lat": 36.869855,
  "name": "O'Connor Brewing Company"
}, {
  "address": "5770 Dow Avenue, Alexandria",
  "b": 0,
  "c": "F",
  "s": "5770 Dow Avenue",
  "lng": -77.133504,
  "city": "Alexandria",
  "ov": "Portner Brewhouse",
  "clr": "n",
  "cty": "US",
  "id": 135073346,
  "lat": 38.804502,
  "name": "Portner Brewhouse"
}, {
  "address": "801 State Street, Bristol",
  "b": 0,
  "c": "F",
  "s": "801 State Street",
  "lng": -82.186824,
  "city": "Bristol",
  "ov": "State Street Brewing",
  "clr": "u",
  "cty": "US",
  "id": 153197270,
  "lat": 36.595195,
  "name": "State Street Brewing"
}, {
  "address": "101 Loudoun Street Southeast, Leesburg",
  "b": 0,
  "c": "F",
  "s": "101 Loudoun Street Southeast",
  "lng": -77.56342,
  "city": "Leesburg",
  "ov": "Bike TrAle Brewing",
  "clr": "p",
  "cty": "US",
  "id": 145928894,
  "lat": 39.113652,
  "name": "Bike TrAle Brewing"
}, {
  "address": "9776 Center Street, Manassas",
  "b": 0,
  "c": "F",
  "s": "9776 Center Street",
  "lng": -77.489768,
  "city": "Manassas",
  "ov": "BadWolf Phunk Haus",
  "clr": "n",
  "cty": "US",
  "id": 134282469,
  "lat": 38.753524,
  "name": "BadWolf Phunk Haus"
}, {
  "address": "350 Lansdowne Road, Fredericksburg",
  "b": 0,
  "c": "F",
  "s": "350 Lansdowne Road",
  "lng": -77.456279,
  "city": "Fredericksburg",
  "ov": "Strangeways Brewing",
  "clr": "g",
  "cty": "US",
  "id": 145304796,
  "lat": 38.272998,
  "name": "Strangeways Brewing"
}, {
  "address": "7000 Newington Road, Lorton",
  "b": 0,
  "c": "F",
  "s": "7000 Newington Road",
  "lng": -77.184534,
  "city": "Lorton",
  "ov": "Fair Winds Brewing Company",
  "clr": "n",
  "cty": "US",
  "id": 134283634,
  "lat": 38.739105,
  "name": "Fair Winds Brewing Company"
}, {
  "address": "106 South Street East, Charlottesville",
  "b": 0,
  "c": "F",
  "s": "106 South Street East",
  "lng": -78.482586,
  "city": "Charlottesville",
  "ov": "South Street Brewery",
  "clr": "b",
  "cty": "US",
  "id": 135073850,
  "lat": 38.029424,
  "name": "South Street Brewery"
}, {
  "address": "Brambleton Plaza, Brambleton",
  "b": 0,
  "c": "F",
  "s": "Brambleton Plaza",
  "lng": -77.536924,
  "city": "Brambleton",
  "ov": "Lost Rhino Retreat",
  "clr": "p",
  "cty": "US",
  "id": 134285143,
  "lat": 38.984219,
  "name": "Lost Rhino Retreat"
}, {
  "address": "5391 Three Notched Road, Crozet",
  "b": 0,
  "c": "F",
  "s": "5391 Three Notched Road",
  "lng": -78.686689,
  "city": "Crozet",
  "ov": "Starr Hill Brewery",
  "clr": "b",
  "cty": "US",
  "id": 135073864,
  "lat": 38.06921,
  "name": "Starr Hill Brewery"
}, {
  "address": "521 Prince George Street, Williamsburg",
  "b": 0,
  "c": "F",
  "s": "521 Prince George Street",
  "lng": -76.708414,
  "city": "Williamsburg",
  "ov": "Amber Ox Kitchen & Brewery",
  "clr": "f",
  "cty": "US",
  "id": 146003451,
  "lat": 37.272864,
  "name": "Amber Ox Kitchen & Brewery"
}, {
  "address": "18043 Jefferson Davis Highway, Ruther Glen",
  "b": 0,
  "c": "F",
  "s": "18043 Jefferson Davis Highway",
  "lng": -77.514883,
  "city": "Ruther Glen",
  "ov": "Rusty Beaver Brewery",
  "clr": "r",
  "cty": "US",
  "id": 135073812,
  "lat": 38.018387,
  "name": "Rusty Beaver Brewery"
}, {
  "address": "400 East Ridgeway Street, Clifton Forge",
  "b": 0,
  "c": "F",
  "s": "400 East Ridgeway Street",
  "lng": -79.827458,
  "city": "Clifton Forge",
  "ov": "Jack Mason's Tavern",
  "clr": "f",
  "cty": "US",
  "id": 167058464,
  "lat": 37.815209,
  "name": "Jack Mason's Tavern"
}, {
  "address": "201 Waters Place #102, Culpeper",
  "b": 0,
  "c": "F",
  "s": "201 Waters Place #102",
  "lng": -77.994389,
  "city": "Culpeper",
  "ov": "Beer Hound Brewery",
  "clr": "B",
  "cty": "US",
  "id": 134282549,
  "lat": 38.471932,
  "name": "Beer Hound Brewery"
}, {
  "address": "504 North King Street, Hampton",
  "b": 0,
  "c": "F",
  "s": "504 North King Street",
  "lng": -76.345383,
  "city": "Hampton",
  "ov": "Caiseal Beer & Spirits Co",
  "clr": "address",
  "cty": "US",
  "id": 153197197,
  "lat": 37.031283,
  "name": "Caiseal Beer & Spirits Co"
}, {
  "address": "3135 Dillons Mill Road, Callaway",
  "b": 0,
  "c": "F",
  "s": "3135 Dillons Mill Road",
  "lng": -80.051423,
  "city": "Callaway",
  "ov": "Chaos Mountain Brewing",
  "clr": "y",
  "cty": "US",
  "id": 134283439,
  "lat": 37.095883,
  "name": "Chaos Mountain Brewing"
}, {
  "address": "4300 Williamsburg Avenue, Richmond",
  "b": 0,
  "c": "F",
  "s": "4300 Williamsburg Avenue",
  "lng": -77.413788,
  "city": "Richmond",
  "ov": "Stone Brewing Richmond",
  "clr": "r",
  "cty": "US",
  "id": 135073881,
  "lat": 37.521272,
  "name": "Stone Brewing Richmond"
}, {
  "address": "135 Salem Avenue Southwest #100, Roanoke",
  "b": 0,
  "c": "F",
  "s": "135 Salem Avenue Southwest #100",
  "lng": -79.943971,
  "city": "Roanoke",
  "ov": "Big Lick Brewing Company LLC",
  "clr": "y",
  "cty": "US",
  "id": 134282730,
  "lat": 37.272669,
  "name": "Big Lick Brewing Company LLC"
}, {
  "address": "North Carolina Road, Manquin",
  "b": 0,
  "c": "F",
  "s": "North Carolina Road",
  "lng": -77.173623,
  "city": "Manquin",
  "ov": "Dragon Run Brewing",
  "clr": "address",
  "cty": "US",
  "id": 150221193,
  "lat": 37.681617,
  "name": "Dragon Run Brewing"
}, {
  "address": "301 South East Street, Culpeper",
  "b": 0,
  "c": "F",
  "s": "301 South East Street",
  "lng": -77.99506,
  "city": "Culpeper",
  "ov": "Far Gohn Brewing Co",
  "clr": "B",
  "cty": "US",
  "id": 134283640,
  "lat": 38.471636,
  "name": "Far Gohn Brewing Co"
}, {
  "address": "495 Cooperative Way, Arrington",
  "b": 0,
  "c": "F",
  "s": "495 Cooperative Way",
  "lng": -78.942293,
  "city": "Arrington",
  "ov": "Blue Mountain Barrel House",
  "clr": "b",
  "cty": "US",
  "id": 134282822,
  "lat": 37.710405,
  "name": "Blue Mountain Barrel House"
}, {
  "address": "401 2nd Street, Williamsburg",
  "b": 0,
  "c": "F",
  "s": "401 2nd Street",
  "lng": -76.681282,
  "city": "Williamsburg",
  "ov": "The Virginia Beer Company",
  "clr": "c",
  "cty": "US",
  "id": 135085980,
  "lat": 37.27215,
  "name": "The Virginia Beer Company"
}, {
  "address": "510 Grove Street, Bedford",
  "b": 0,
  "c": "F",
  "s": "510 Grove Street",
  "lng": -79.516999,
  "city": "Bedford",
  "ov": "Beale's Brewery & BBQ",
  "clr": "b",
  "cty": "US",
  "id": 144173869,
  "lat": 37.335615,
  "name": "Beale's Brewery & BBQ"
}, {
  "address": "3228 Academy Avenue, Portsmouth",
  "b": 0,
  "c": "F",
  "s": "3228 Academy Avenue",
  "lng": -76.398189,
  "city": "Portsmouth",
  "ov": "MoMac Brewing Company",
  "clr": "f",
  "cty": "US",
  "id": 145929217,
  "lat": 36.862247,
  "name": "MoMac Brewing Company"
}, {
  "address": "390 Kings Highway #109, Fredericksburg",
  "b": 0,
  "c": "F",
  "s": "390 Kings Highway #109",
  "lng": -77.439755,
  "city": "Fredericksburg",
  "ov": "Highmark Brewing Company",
  "clr": "g",
  "cty": "US",
  "id": 134284906,
  "lat": 38.287717,
  "name": "Highmark Brewing Company"
}, {
  "address": "120 South Lewis Street, Staunton",
  "b": 0,
  "c": "F",
  "s": "120 South Lewis Street",
  "lng": -79.074586,
  "city": "Staunton",
  "ov": "Redbeard Brewing Company, LLC",
  "clr": "k",
  "cty": "US",
  "id": 135073753,
  "lat": 38.147601,
  "name": "Redbeard Brewing Company, LLC"
}, {
  "address": "257 Sunset Park Drive, Herndon",
  "b": 0,
  "c": "F",
  "s": "257 Sunset Park Drive",
  "lng": -77.374976,
  "city": "Herndon",
  "ov": "Aslin Beer Co",
  "clr": "n",
  "cty": "US",
  "id": 134281171,
  "lat": 38.95637,
  "name": "Aslin Beer Co"
}, {
  "address": "2198 Stone Road, Cape Charles",
  "b": 0,
  "c": "F",
  "s": "2198 Stone Road",
  "lng": -75.998016,
  "city": "Cape Charles",
  "ov": "Cape Charles Brewing Company",
  "clr": "address",
  "cty": "US",
  "id": 146004157,
  "lat": 37.269341,
  "name": "Cape Charles Brewing Company"
}, {
  "address": "110 East Fairfax Street, Falls Church",
  "b": 0,
  "c": "F",
  "s": "110 East Fairfax Street",
  "lng": -77.171842,
  "city": "Falls Church",
  "ov": "Audacious Aleworks",
  "clr": "address",
  "cty": "US",
  "id": 167048613,
  "lat": 38.88037,
  "name": "Audacious Aleworks"
}, {
  "address": "198 Ambriar Plaza, Amherst",
  "b": 0,
  "c": "F",
  "s": "198 Ambriar Plaza",
  "lng": -79.063505,
  "city": "Amherst",
  "ov": "Loose Shoe Brewing Company LLC",
  "clr": "b",
  "cty": "US",
  "id": 134285135,
  "lat": 37.564986,
  "name": "Loose Shoe Brewing Company LLC"
}, {
  "address": "5203 Hatcher Street, Richmond",
  "b": 0,
  "c": "F",
  "s": "5203 Hatcher Street",
  "lng": -77.406923,
  "city": "Richmond",
  "ov": "Triple Crossing Brewing - Fulton",
  "clr": "r",
  "cty": "US",
  "id": 135086031,
  "lat": 37.512586,
  "name": "Triple Crossing Brewing - Fulton"
}, {
  "address": "1715 Summit Avenue, Richmond",
  "b": 0,
  "c": "F",
  "s": "1715 Summit Avenue",
  "lng": -77.468371,
  "city": "Richmond",
  "ov": "Isley Brewing Company",
  "clr": "r",
  "cty": "US",
  "id": 134284936,
  "lat": 37.568909,
  "name": "Isley Brewing Company"
}, {
  "address": "1209 Hull Street, Richmond",
  "b": 0,
  "c": "F",
  "s": "1209 Hull Street",
  "lng": -77.444592,
  "city": "Richmond",
  "ov": "Dogtown Brewing Co.",
  "clr": "address",
  "cty": "US",
  "id": 166494008,
  "lat": 37.521086,
  "name": "Dogtown Brewing Co."
}, {
  "address": "21730 Red Rum Drive #142, Ashburn",
  "b": 0,
  "c": "F",
  "s": "21730 Red Rum Drive #142",
  "lng": -77.475568,
  "city": "Ashburn",
  "ov": "Lost Rhino Brewing Company (MA Hagerman Brewing Co.)",
  "clr": "p",
  "cty": "US",
  "id": 134285160,
  "lat": 39.016129,
  "name": "Lost Rhino Brewing Company (MA Hagerman Brewing Co.)"
}, {
  "address": "205 Harrison Street Southeast, Leesburg",
  "b": 0,
  "c": "F",
  "s": "205 Harrison Street Southeast",
  "lng": -77.563107,
  "city": "Leesburg",
  "ov": "Crooked Run Brewing LLC",
  "clr": "p",
  "cty": "US",
  "id": 134283524,
  "lat": 39.112355,
  "name": "Crooked Run Brewing LLC"
}, {
  "address": "1040 Owensville Road, Charlottesville",
  "b": 0,
  "c": "F",
  "s": "1040 Owensville Road",
  "lng": -78.59488,
  "city": "Charlottesville",
  "ov": "Meriwether Springs Brewing Company",
  "clr": "address",
  "cty": "US",
  "id": 134285207,
  "lat": 38.066825,
  "name": "Meriwether Springs Brewing Company"
}, {
  "address": "1571 Mount Calvary Road, Brookneal",
  "b": 0,
  "c": "F",
  "s": "1571 Mount Calvary Road",
  "lng": -78.895547,
  "city": "Brookneal",
  "ov": "Staunton River Brewing Company",
  "clr": "b",
  "cty": "US",
  "id": 135073869,
  "lat": 37.060314,
  "name": "Staunton River Brewing Company"
}, {
  "address": "2444 Pleasure House Road, Virginia Beach",
  "b": 0,
  "c": "F",
  "s": "2444 Pleasure House Road",
  "lng": -76.131936,
  "city": "Virginia Beach",
  "ov": "Commonwealth Brewing Co",
  "clr": "c",
  "cty": "US",
  "id": 134283465,
  "lat": 36.913509,
  "name": "Commonwealth Brewing Co"
}, {
  "address": "108 North 21st Street, Purcellville",
  "b": 0,
  "c": "F",
  "s": "108 North 21st Street",
  "lng": -77.714913,
  "city": "Purcellville",
  "ov": "Jack's Run Brewing Company",
  "clr": "p",
  "cty": "US",
  "id": 134284956,
  "lat": 39.137042,
  "name": "Jack's Run Brewing Company"
}, {
  "address": "320 North Cameron Street, Winchester",
  "b": 0,
  "c": "F",
  "s": "320 North Cameron Street",
  "lng": -78.162694,
  "city": "Winchester",
  "ov": "Winchester Brew Works",
  "clr": "s",
  "cty": "US",
  "id": 135086122,
  "lat": 39.186963,
  "name": "Winchester Brew Works"
}, {
  "address": "614 Norfolk Avenue, Virginia Beach",
  "b": 0,
  "c": "F",
  "s": "614 Norfolk Avenue",
  "lng": -75.980961,
  "city": "Virginia Beach",
  "ov": "Back Bay Brewing",
  "clr": "c",
  "cty": "US",
  "id": 134281443,
  "lat": 36.837449,
  "name": "Back Bay Brewing"
}, {
  "address": "4035 Electric Road #b, Roanoke",
  "b": 0,
  "c": "F",
  "s": "4035 Electric Road #b",
  "lng": -79.982817,
  "city": "Roanoke",
  "ov": "Barrel Chest Wine and Beer",
  "clr": "f",
  "cty": "US",
  "id": 134282495,
  "lat": 37.223579,
  "name": "Barrel Chest Wine and Beer"
}, {
  "address": "1626 Ownby Lane, Richmond",
  "b": 0,
  "c": "F",
  "s": "1626 Ownby Lane",
  "lng": -77.459302,
  "city": "Richmond",
  "ov": "Castleburg Brewery LLC",
  "clr": "r",
  "cty": "US",
  "id": 134283106,
  "lat": 37.563939,
  "name": "Castleburg Brewery LLC"
}, {
  "address": "15670 Ashbury Church Road, Purcellville",
  "b": 0,
  "c": "F",
  "s": "15670 Ashbury Church Road",
  "lng": -77.72646,
  "city": "Purcellville",
  "ov": "Old 690 Brewing Company",
  "clr": "p",
  "cty": "US",
  "id": 134285477,
  "lat": 39.183927,
  "name": "Old 690 Brewing Company"
}, {
  "address": "834 Springhill Road, Staunton",
  "b": 0,
  "c": "F",
  "s": "834 Springhill Road",
  "lng": -79.078892,
  "city": "Staunton",
  "ov": "Queen City Brewing Ltd",
  "clr": "k",
  "cty": "US",
  "id": 135073724,
  "lat": 38.161636,
  "name": "Queen City Brewing Ltd"
}, {
  "address": "103 West Beverley Street, Staunton",
  "b": 0,
  "c": "F",
  "s": "103 West Beverley Street",
  "lng": -79.073888,
  "city": "Staunton",
  "ov": "Shenandoah Valley Brewing Company",
  "clr": "k",
  "cty": "US",
  "id": 139440836,
  "lat": 38.149599,
  "name": "Shenandoah Valley Brewing Company"
}, {
  "address": "318 West Main Street, Tazewell",
  "b": 0,
  "c": "F",
  "s": "318 West Main Street",
  "lng": -81.529645,
  "city": "Tazewell",
  "ov": "Painted Peak Brewing Co",
  "clr": "f",
  "cty": "US",
  "id": 153197263,
  "lat": 37.113463,
  "name": "Painted Peak Brewing Co"
}, {
  "address": "1519 Stuarts Draft Highway, Stuarts Draft",
  "b": 0,
  "c": "F",
  "s": "1519 Stuarts Draft Highway",
  "lng": -79.082746,
  "city": "Stuarts Draft",
  "ov": "Blazing Barrel Brewing Company",
  "clr": "address",
  "cty": "US",
  "id": 153197414,
  "lat": 38.041094,
  "name": "Blazing Barrel Brewing Company"
}, {
  "address": "235 North Market Street, Petersburg",
  "b": 0,
  "c": "F",
  "s": "235 North Market Street",
  "lng": -77.406919,
  "city": "Petersburg",
  "ov": "Ammo Brewing",
  "clr": "f",
  "cty": "US",
  "id": 134279874,
  "lat": 37.230916,
  "name": "Ammo Brewing"
}, {
  "address": "2930 West Broad Street, Richmond",
  "b": 0,
  "c": "F",
  "s": "2930 West Broad Street",
  "lng": -77.472219,
  "city": "Richmond",
  "ov": "Three Notchd Brewing Co",
  "clr": "r",
  "cty": "US",
  "id": 135085989,
  "lat": 37.56435,
  "name": "Three Notchd Brewing Co"
}, {
  "address": "Branch Road, Scottsville",
  "b": 0,
  "c": "F",
  "s": "Branch Road",
  "lng": -78.365055,
  "city": "Scottsville",
  "ov": "Antioch Brewing Company",
  "clr": "address",
  "cty": "US",
  "id": 139436413,
  "lat": 37.877613,
  "name": "Antioch Brewing Company"
}, {
  "address": "110 West Main Street, Orange",
  "b": 0,
  "c": "F",
  "s": "110 West Main Street",
  "lng": -78.111653,
  "city": "Orange",
  "ov": "Willow Spring Brewery",
  "clr": "f",
  "cty": "US",
  "id": 135086114,
  "lat": 38.244954,
  "name": "Willow Spring Brewery"
}, {
  "address": "895 West Main Street, Smithfield",
  "b": 0,
  "c": "F",
  "s": "895 West Main Street",
  "lng": -76.651344,
  "city": "Smithfield",
  "ov": "757 Brewing Company",
  "clr": "address",
  "cty": "US",
  "id": 168875342,
  "lat": 36.972444,
  "name": "757 Brewing Company"
}, {
  "address": "444 West Broad Street #i, Falls Church",
  "b": 0,
  "c": "F",
  "s": "444 West Broad Street #i",
  "lng": -77.176616,
  "city": "Falls Church",
  "ov": "Mad Fox Brewing Company LLC",
  "clr": "n",
  "cty": "US",
  "id": 134285178,
  "lat": 38.886658,
  "name": "Mad Fox Brewing Company LLC"
}, {
  "address": "2409 Bowdens Ferry Road, Norfolk",
  "b": 0,
  "c": "F",
  "s": "2409 Bowdens Ferry Road",
  "lng": -76.305459,
  "city": "Norfolk",
  "ov": "Bold Mariner Brewing Company",
  "clr": "c",
  "cty": "US",
  "id": 135085941,
  "lat": 36.876082,
  "name": "Bold Mariner Brewing Company"
}, {
  "address": "113 South Foushee Street, Richmond",
  "b": 0,
  "c": "F",
  "s": "113 South Foushee Street",
  "lng": -77.445504,
  "city": "Richmond",
  "ov": "Triple Crossing Brewing Company",
  "clr": "r",
  "cty": "US",
  "id": 135086043,
  "lat": 37.541588,
  "name": "Triple Crossing Brewing Company"
}, {
  "address": "9925 Discovery Blvd, Manassas",
  "b": 0,
  "c": "F",
  "s": "9925 Discovery Blvd",
  "lng": -77.521558,
  "city": "Manassas",
  "ov": "2 Silos Brewing Co",
  "clr": "n",
  "cty": "US",
  "id": 139436247,
  "lat": 38.742414,
  "name": "2 Silos Brewing Co"
}, {
  "address": "375 Madrid Road, Waynesboro",
  "b": 0,
  "c": "F",
  "s": "375 Madrid Road",
  "lng": -78.905913,
  "city": "Waynesboro",
  "ov": "Stable Craft Brewing",
  "clr": "k",
  "cty": "US",
  "id": 135147478,
  "lat": 38.160019,
  "name": "Stable Craft Brewing"
}, {
  "address": "3445 West Cary Street, Richmond",
  "b": 0,
  "c": "F",
  "s": "3445 West Cary Street",
  "lng": -77.485966,
  "city": "Richmond",
  "ov": "Garden Grove Brewing Co",
  "clr": "r",
  "cty": "US",
  "id": 134283748,
  "lat": 37.554798,
  "name": "Garden Grove Brewing Co"
}, {
  "address": "401 East Grace Street, Richmond",
  "b": 0,
  "c": "F",
  "s": "401 East Grace Street",
  "lng": -77.439195,
  "city": "Richmond",
  "ov": "Champion Brewing Co",
  "clr": "r",
  "cty": "US",
  "id": 134283396,
  "lat": 37.542322,
  "name": "Champion Brewing Co"
}, {
  "address": "328 Laskin Road, Virginia Beach",
  "b": 0,
  "c": "F",
  "s": "328 Laskin Road",
  "lng": -75.980099,
  "city": "Virginia Beach",
  "ov": "Home Republic",
  "clr": "c",
  "cty": "US",
  "id": 134284914,
  "lat": 36.859162,
  "name": "Home Republic"
}, {
  "address": "106 George Street, Fredericksburg",
  "b": 0,
  "c": "F",
  "s": "106 George Street",
  "lng": -77.458536,
  "city": "Fredericksburg",
  "ov": "Spencer Devon Brewing LLC",
  "clr": "g",
  "cty": "US",
  "id": 135073854,
  "lat": 38.302698,
  "name": "Spencer Devon Brewing LLC"
}, {
  "address": "313 32nd Street, Virginia Beach",
  "b": 0,
  "c": "F",
  "s": "313 32nd Street",
  "lng": -75.980856,
  "city": "Virginia Beach",
  "ov": "Smartmouth Brewing Co. - Virginia Beach",
  "clr": "c",
  "cty": "US",
  "id": 146003620,
  "lat": 36.860373,
  "name": "Smartmouth Brewing Co. - Virginia Beach"
}, {
  "address": "423 3rd Street, Petersburg",
  "b": 0,
  "c": "F",
  "s": "423 3rd Street",
  "lng": -77.401145,
  "city": "Petersburg",
  "ov": "Trapezium Brewing Co.",
  "clr": "f",
  "cty": "US",
  "id": 135086023,
  "lat": 37.233363,
  "name": "Trapezium Brewing Co."
}, {
  "address": "15201 Potomac Town Place #110, Woodbridge",
  "b": 0,
  "c": "F",
  "s": "15201 Potomac Town Place #110",
  "lng": -77.286769,
  "city": "Woodbridge",
  "ov": "Brew Republic Bierwerks",
  "clr": "n",
  "cty": "US",
  "id": 134282889,
  "lat": 38.627209,
  "name": "Brew Republic Bierwerks"
}, {
  "address": "6 Old Whitmore Avenue, Roanoke",
  "b": 0,
  "c": "F",
  "s": "6 Old Whitmore Avenue",
  "lng": -79.941464,
  "city": "Roanoke",
  "ov": "Starr Hill Pilot Brewery & Side Stage",
  "clr": "y",
  "cty": "US",
  "id": 144174227,
  "lat": 37.257002,
  "name": "Starr Hill Pilot Brewery & Side Stage"
}, {
  "address": "3200 West Leigh Street, Richmond",
  "b": 0,
  "c": "F",
  "s": "3200 West Leigh Street",
  "lng": -77.471921,
  "city": "Richmond",
  "ov": "Ardent Craft Ales",
  "clr": "r",
  "cty": "US",
  "id": 134281026,
  "lat": 37.568407,
  "name": "Ardent Craft Ales"
}, {
  "address": "3300 Dill Smith Drive #d, Fredericksburg",
  "b": 0,
  "c": "F",
  "s": "3300 Dill Smith Drive #d",
  "lng": -77.447486,
  "city": "Fredericksburg",
  "ov": "Adventure Brewing Company",
  "clr": "g",
  "cty": "US",
  "id": 134279399,
  "lat": 38.279455,
  "name": "Adventure Brewing Company"
}, {
  "address": "123 East Court Street, Woodstock",
  "b": 0,
  "c": "F",
  "s": "123 East Court Street",
  "lng": -78.504414,
  "city": "Woodstock",
  "ov": "Woodstock Brew House",
  "clr": "s",
  "cty": "US",
  "id": 135086148,
  "lat": 38.881654,
  "name": "Woodstock Brew House"
}, {
  "address": "600 Craghead Street, Danville",
  "b": 0,
  "c": "F",
  "s": "600 Craghead Street",
  "lng": -79.386393,
  "city": "Danville",
  "ov": "Ballad Brewing",
  "clr": "f",
  "cty": "US",
  "id": 142922539,
  "lat": 36.584925,
  "name": "Ballad Brewing"
}, {
  "address": "14 West Boscawen Street, Winchester",
  "b": 0,
  "c": "F",
  "s": "14 West Boscawen Street",
  "lng": -78.166201,
  "city": "Winchester",
  "ov": "Broken Window Brewing Co.",
  "clr": "s",
  "cty": "US",
  "id": 146043627,
  "lat": 39.184196,
  "name": "Broken Window Brewing Co."
}, {
  "address": "1443 Lakeside Circle, Salem",
  "b": 0,
  "c": "F",
  "s": "1443 Lakeside Circle",
  "lng": -80.030318,
  "city": "Salem",
  "ov": "Ober Brewing Company",
  "clr": "address",
  "cty": "US",
  "id": 144010570,
  "lat": 37.304668,
  "name": "Ober Brewing Company"
}, {
  "address": "2461 Rockfish Valley Highway, Nellysford",
  "b": 0,
  "c": "F",
  "s": "2461 Rockfish Valley Highway",
  "lng": -78.881218,
  "city": "Nellysford",
  "ov": "Wild Wolf Brewing Company",
  "clr": "b",
  "cty": "US",
  "id": 135086096,
  "lat": 37.887793,
  "name": "Wild Wolf Brewing Company"
}, {
  "address": "16015 John Marshall Highway, Broad Run",
  "b": 0,
  "c": "F",
  "s": "16015 John Marshall Highway",
  "lng": -77.666734,
  "city": "Broad Run",
  "ov": "The Farm Brewery at Broad Run",
  "clr": "B",
  "cty": "US",
  "id": 139521276,
  "lat": 38.818371,
  "name": "The Farm Brewery at Broad Run"
}, {
  "address": "211 21st Street, Virginia Beach",
  "b": 0,
  "c": "F",
  "s": "211 21st Street",
  "lng": -75.976433,
  "city": "Virginia Beach",
  "ov": "The Bunker Brewpub",
  "clr": "address",
  "cty": "US",
  "id": 168873801,
  "lat": 36.849369,
  "name": "The Bunker Brewpub"
}, {
  "address": "312 West 3rd Street, Farmville",
  "b": 0,
  "c": "F",
  "s": "312 West 3rd Street",
  "lng": -78.394981,
  "city": "Farmville",
  "ov": "Third Street Brewing",
  "clr": "f",
  "cty": "US",
  "id": 144173081,
  "lat": 37.303974,
  "name": "Third Street Brewing"
}, {
  "address": "120 North Chestnut Street, Marion",
  "b": 0,
  "c": "F",
  "s": "120 North Chestnut Street",
  "lng": -81.518917,
  "city": "Marion",
  "ov": "Headspace Brewing Company LLC",
  "clr": "u",
  "cty": "US",
  "id": 153197248,
  "lat": 36.834288,
  "name": "Headspace Brewing Company LLC"
}, {
  "address": "43271 Spinks Ferry Road, Leesburg",
  "b": 0,
  "c": "F",
  "s": "43271 Spinks Ferry Road",
  "lng": -77.49671,
  "city": "Leesburg",
  "ov": "Barnhouse Brewery",
  "clr": "p",
  "cty": "US",
  "id": 134282486,
  "lat": 39.204473,
  "name": "Barnhouse Brewery"
}, {
  "address": "758 Settlers Landing Road, Hampton",
  "b": 0,
  "c": "F",
  "s": "758 Settlers Landing Road",
  "lng": -76.341354,
  "city": "Hampton",
  "ov": "Bull Island Brewing Co",
  "clr": "c",
  "cty": "US",
  "id": 134282943,
  "lat": 37.025113,
  "name": "Bull Island Brewing Co"
}, {
  "address": "2918 Eskridge Road, Fairfax",
  "b": 0,
  "c": "F",
  "s": "2918 Eskridge Road",
  "lng": -77.232136,
  "city": "Fairfax",
  "ov": "Caboose Brewing - Second Location",
  "clr": "address",
  "cty": "US",
  "id": 145083328,
  "lat": 38.872549,
  "name": "Caboose Brewing - Second Location"
}, {
  "address": "3623 Grove Lane, Delaplane",
  "b": 0,
  "c": "F",
  "s": "3623 Grove Lane",
  "lng": -77.905115,
  "city": "Delaplane",
  "ov": "Barrel Oak Farm Taphouse",
  "clr": "s",
  "cty": "US",
  "id": 134282509,
  "lat": 38.886763,
  "name": "Barrel Oak Farm Taphouse"
}, {
  "address": "14151 Newbrook Drive, Chantilly",
  "b": 0,
  "c": "F",
  "s": "14151 Newbrook Drive",
  "lng": -77.436708,
  "city": "Chantilly",
  "ov": "Honor Brewing Company",
  "clr": "address",
  "cty": "US",
  "id": 146003311,
  "lat": 38.873592,
  "name": "Honor Brewing Company"
}, {
  "address": "1000 West Main Street, Charlottesville",
  "b": 0,
  "c": "F",
  "s": "1000 West Main Street",
  "lng": -78.494782,
  "city": "Charlottesville",
  "ov": "Hardywood Park Craft Brewery",
  "clr": "b",
  "cty": "US",
  "id": 139438506,
  "lat": 38.032594,
  "name": "Hardywood Park Craft Brewery"
}, {
  "address": "12830 West Creek Parkway #j, Richmond",
  "b": 0,
  "c": "F",
  "s": "12830 West Creek Parkway #j",
  "lng": -77.669777,
  "city": "Richmond",
  "ov": "Kindred Spirit Brewing",
  "clr": "r",
  "cty": "US",
  "id": 134285060,
  "lat": 37.610049,
  "name": "Kindred Spirit Brewing"
}, {
  "address": "215 Washington Avenue, Colonial Beach",
  "b": 0,
  "c": "F",
  "s": "215 Washington Avenue",
  "lng": -76.963272,
  "city": "Colonial Beach",
  "ov": "Colonial Beach Brewing",
  "clr": "f",
  "cty": "US",
  "id": 142925931,
  "lat": 38.251928,
  "name": "Colonial Beach Brewing"
}, {
  "address": "205 Hirst Road #105, Purcellville",
  "b": 0,
  "c": "F",
  "s": "205 Hirst Road #105",
  "lng": -77.712879,
  "city": "Purcellville",
  "ov": "B Chord Brewing Company (Former Corcoran Location)",
  "clr": "p",
  "cty": "US",
  "id": 134283475,
  "lat": 39.143484,
  "name": "B Chord Brewing Company (Former Corcoran Location)"
}, {
  "address": "1257 Burnbridge Road, Forest",
  "b": 0,
  "c": "F",
  "s": "1257 Burnbridge Road",
  "lng": -79.287702,
  "city": "Forest",
  "ov": "Apocalypse Ale Works",
  "clr": "b",
  "cty": "US",
  "id": 134280682,
  "lat": 37.362218,
  "name": "Apocalypse Ale Works"
}, {
  "address": "6008 West Broad Street, Richmond",
  "b": 0,
  "c": "F",
  "s": "6008 West Broad Street",
  "lng": -77.507132,
  "city": "Richmond",
  "ov": "The Answer Brewpub",
  "clr": "r",
  "cty": "US",
  "id": 135085917,
  "lat": 37.593197,
  "name": "The Answer Brewpub"
}, {
  "address": "221 Precast Way, Troutville",
  "b": 0,
  "c": "F",
  "s": "221 Precast Way",
  "lng": -79.900298,
  "city": "Troutville",
  "ov": "Flying Mouse Brewery",
  "clr": "y",
  "cty": "US",
  "id": 134283660,
  "lat": 37.409246,
  "name": "Flying Mouse Brewery"
}, {
  "address": "2303 North Augusta Street #a, Staunton",
  "b": 0,
  "c": "F",
  "s": "2303 North Augusta Street #a",
  "lng": -79.055252,
  "city": "Staunton",
  "ov": "Bedlam Brewing",
  "clr": "k",
  "cty": "US",
  "id": 134282537,
  "lat": 38.167493,
  "name": "Bedlam Brewing"
}, {
  "address": "13270 Alanthus Road, Brandy Station",
  "b": 0,
  "c": "F",
  "s": "13270 Alanthus Road",
  "lng": -77.907571,
  "city": "Brandy Station",
  "ov": "Old Trade Brewery",
  "clr": "B",
  "cty": "US",
  "id": 139440197,
  "lat": 38.519177,
  "name": "Old Trade Brewery"
}, {
  "address": "1309 Raleigh Avenue, Norfolk",
  "b": 0,
  "c": "F",
  "s": "1309 Raleigh Avenue",
  "lng": -76.309555,
  "city": "Norfolk",
  "ov": "Smartmouth Brewing Co.",
  "clr": "c",
  "cty": "US",
  "id": 135073842,
  "lat": 36.866459,
  "name": "Smartmouth Brewing Co."
}, {
  "address": "4187 Plank Road, Fredericksburg",
  "b": 0,
  "c": "F",
  "s": "4187 Plank Road",
  "lng": -77.535923,
  "city": "Fredericksburg",
  "ov": "Battlefield Brewing Co",
  "clr": "g",
  "cty": "US",
  "id": 134282522,
  "lat": 38.290232,
  "name": "Battlefield Brewing Co"
}, {
  "address": "11293 Air Park Road, Ashland",
  "b": 0,
  "c": "F",
  "s": "11293 Air Park Road",
  "lng": -77.446945,
  "city": "Ashland",
  "ov": "Center of the Universe Brewing Company",
  "clr": "r",
  "cty": "US",
  "id": 134283185,
  "lat": 37.708563,
  "name": "Center of the Universe Brewing Company"
}, {
  "address": "16 Chester Street, Front Royal",
  "b": 0,
  "c": "F",
  "s": "16 Chester Street",
  "lng": -78.190942,
  "city": "Front Royal",
  "ov": "Virginia Beer Museum",
  "clr": "s",
  "cty": "US",
  "id": 135186188,
  "lat": 38.91825,
  "name": "Virginia Beer Museum"
}, {
  "address": "725 East Main Street, Purcellville",
  "b": 0,
  "c": "F",
  "s": "725 East Main Street",
  "lng": -77.703815,
  "city": "Purcellville",
  "ov": "Belly Love Brewing Company",
  "clr": "p",
  "cty": "US",
  "id": 134282561,
  "lat": 39.137745,
  "name": "Belly Love Brewing Company"
}, {
  "address": "209 Trade Street, Danville",
  "b": 0,
  "c": "F",
  "s": "209 Trade Street",
  "lng": -79.421324,
  "city": "Danville",
  "ov": "2 Witches Winery & Brewing Co Inc",
  "clr": "f",
  "cty": "US",
  "id": 134278925,
  "lat": 36.585825,
  "name": "2 Witches Winery & Brewing Co Inc"
}, {
  "address": "1830 Thrift Road, Madison",
  "b": 0,
  "c": "F",
  "s": "1830 Thrift Road",
  "lng": -78.278127,
  "city": "Madison",
  "ov": "Bald Top Brewing Company LLC",
  "clr": "B",
  "cty": "US",
  "id": 134282476,
  "lat": 38.380536,
  "name": "Bald Top Brewing Company LLC"
}, {
  "address": "33582 Bear Chase Lane Bluemont, Virginia 20135, Bluemont",
  "b": 0,
  "c": "F",
  "s": "33582 Bear Chase Lane Bluemont, Virginia 20135",
  "lng": -77.836503,
  "city": "Bluemont",
  "ov": "Bear Chase Brewing Company",
  "clr": "address",
  "cty": "US",
  "id": 173537038,
  "lat": 39.110122,
  "name": "Bear Chase Brewing Company"
}, {
  "address": "22560 Glenn Drive, Sterling",
  "b": 0,
  "c": "F",
  "s": "22560 Glenn Drive",
  "lng": -77.425153,
  "city": "Sterling",
  "ov": "Rocket Frog Brewing Company",
  "clr": "address",
  "cty": "US",
  "id": 153197403,
  "lat": 38.995318,
  "name": "Rocket Frog Brewing Company"
}, {
  "address": "5135 Southeast Side Highway, Elkton",
  "b": 0,
  "c": "F",
  "s": "5135 Southeast Side Highway",
  "lng": -78.676569,
  "city": "Elkton",
  "ov": "MillerCoors",
  "clr": "j",
  "cty": "US",
  "id": 134285219,
  "lat": 38.356888,
  "name": "MillerCoors"
}, {
  "address": "7 River Ln, Sperryville",
  "b": 0,
  "c": "F",
  "s": "7 River Ln",
  "lng": -78.216296,
  "city": "Sperryville",
  "ov": "Pen Druid Brewing",
  "clr": "s",
  "cty": "US",
  "id": 135073318,
  "lat": 38.658304,
  "name": "Pen Druid Brewing"
}, {
  "address": "42615 Trade West Drive, Sterling",
  "b": 0,
  "c": "F",
  "s": "42615 Trade West Drive",
  "lng": -77.526407,
  "city": "Sterling",
  "ov": "Solace Brewing Company",
  "clr": "p",
  "cty": "US",
  "id": 142928581,
  "lat": 38.953661,
  "name": "Solace Brewing Company"
}, {
  "address": "1505 Taylor Farm Road, Virginia Beach",
  "b": 0,
  "c": "F",
  "s": "1505 Taylor Farm Road",
  "lng": -76.060467,
  "city": "Virginia Beach",
  "ov": "Reaver Beach Brewing Co.",
  "clr": "c",
  "cty": "US",
  "id": 135073736,
  "lat": 36.78837,
  "name": "Reaver Beach Brewing Co."
}, {
  "address": "1001 Jacob Burner Drive, Elkton",
  "b": 0,
  "c": "F",
  "s": "1001 Jacob Burner Drive",
  "lng": -78.718512,
  "city": "Elkton",
  "ov": "Cave Hill Farms Brewery",
  "clr": "address",
  "cty": "US",
  "id": 153382268,
  "lat": 38.360997,
  "name": "Cave Hill Farms Brewery"
}, {
  "address": "212 West 6th Street, Richmond",
  "b": 0,
  "c": "F",
  "s": "212 West 6th Street",
  "lng": -77.441981,
  "city": "Richmond",
  "ov": "Twisted Ales Craft Brewing",
  "clr": "r",
  "cty": "US",
  "id": 139521737,
  "lat": 37.525928,
  "name": "Twisted Ales Craft Brewing"
}, {
  "address": "10089 Brook Road, Glen Allen",
  "b": 0,
  "c": "F",
  "s": "10089 Brook Road",
  "lng": -77.458407,
  "city": "Glen Allen",
  "ov": "Intermission Beer Co LLC",
  "clr": "r",
  "cty": "US",
  "id": 142927331,
  "lat": 37.673039,
  "name": "Intermission Beer Co LLC"
}, {
  "address": "Poquoson",
  "b": 0,
  "c": "F",
  "s": "",
  "lng": -76.345777,
  "city": "Poquoson",
  "ov": "Straight Shot Brewing",
  "clr": "address",
  "cty": "US",
  "id": 168874485,
  "lat": 37.122366,
  "name": "Straight Shot Brewing"
}, {
  "address": "324 6th Street Southeast, Charlottesville",
  "b": 0,
  "c": "F",
  "s": "324 6th Street Southeast",
  "lng": -78.478461,
  "city": "Charlottesville",
  "ov": "Champion Brewing Co",
  "clr": "b",
  "cty": "US",
  "id": 134283387,
  "lat": 38.027763,
  "name": "Champion Brewing Co"
}, {
  "address": "24333 Narrow Gauge Road, Unionville",
  "b": 0,
  "c": "F",
  "s": "24333 Narrow Gauge Road",
  "lng": -77.949382,
  "city": "Unionville",
  "ov": "Unionville Brewing Co.",
  "clr": "address",
  "cty": "US",
  "id": 172041020,
  "lat": 38.268692,
  "name": "Unionville Brewing Co."
}, {
  "address": "4220 Mountain Valley Road, Axton",
  "b": 0,
  "c": "F",
  "s": "4220 Mountain Valley Road",
  "lng": -79.707332,
  "city": "Axton",
  "ov": "Mountain Valley Brewing",
  "clr": "f",
  "cty": "US",
  "id": 139439001,
  "lat": 36.715607,
  "name": "Mountain Valley Brewing"
}, {
  "address": "22810 James Monroe Highway, Aldie",
  "b": 0,
  "c": "F",
  "s": "22810 James Monroe Highway",
  "lng": -77.61755,
  "city": "Aldie",
  "ov": "Quattro Goombas Brewery",
  "clr": "p",
  "cty": "US",
  "id": 135073505,
  "lat": 38.985853,
  "name": "Quattro Goombas Brewery"
}, {
  "address": "404 Browning Court #c, Purcellville",
  "b": 0,
  "c": "F",
  "s": "404 Browning Court #c",
  "lng": -77.720188,
  "city": "Purcellville",
  "ov": "Adroit Theory Brewing",
  "clr": "p",
  "cty": "US",
  "id": 134279370,
  "lat": 39.143902,
  "name": "Adroit Theory Brewing"
}, {
  "address": "111 South Pollard Street, Vinton",
  "b": 0,
  "c": "F",
  "s": "111 South Pollard Street",
  "lng": -79.897777,
  "city": "Vinton",
  "ov": "Twin Creeks Brewing Company",
  "clr": "y",
  "cty": "US",
  "id": 135086048,
  "lat": 37.2806,
  "name": "Twin Creeks Brewing Company"
}, {
  "address": "6895 Back Road, Maurertown",
  "b": 0,
  "c": "F",
  "s": "6895 Back Road",
  "lng": -78.531519,
  "city": "Maurertown",
  "ov": "Ridge Runner Farms and Brewing Co.",
  "clr": "s",
  "cty": "US",
  "id": 145929465,
  "lat": 38.934199,
  "name": "Ridge Runner Farms and Brewing Co."
}, {
  "address": "210 South King Street, Leesburg",
  "b": 0,
  "c": "F",
  "s": "210 South King Street",
  "lng": -77.564941,
  "city": "Leesburg",
  "ov": "Black Walnut Brewery",
  "clr": "p",
  "cty": "US",
  "id": 134282775,
  "lat": 39.112757,
  "name": "Black Walnut Brewery"
}, {
  "address": "1110 Alverser Drive, Midlothian",
  "b": 0,
  "c": "F",
  "s": "1110 Alverser Drive",
  "lng": -77.618446,
  "city": "Midlothian",
  "ov": "Extra Billys Smokehouse and Brewery",
  "clr": "r",
  "cty": "US",
  "id": 134283625,
  "lat": 37.507239,
  "name": "Extra Billys Smokehouse and Brewery"
}, {
  "address": "5476 Mooretown Road, Williamsburg",
  "b": 0,
  "c": "F",
  "s": "5476 Mooretown Road",
  "lng": -76.730715,
  "city": "Williamsburg",
  "ov": "Brass Cannon Brewing Inc",
  "clr": "c",
  "cty": "US",
  "id": 134282875,
  "lat": 37.316143,
  "name": "Brass Cannon Brewing Inc"
}]
